station_id,station_name,station_sequence_no,station_id_no_nga,station_latitude,station_longitude,vs30_selected_for_analysis,new_z1_cvmsi,new_z25_cvmsi
299,Hollister Diff Array #1,-999,-999,-999,-999,-999,-999,-999
629,LA Dam,1,0,34.294,-118.483,628.99,320,3820
32,Buena Vista - Taft,2,1,35.16,-119.35,385.69,0,5740
28,2516 Via Tejon PV,3,411,33.801,-118.387,280.56,520,1580
163,Green Church,4,3,37.62,-118.82,353.2,0,3180
249,ALP (temp),5,4,36.0109,-120.253,467.03,0,6480
256,LLN (temp),6,5,36.2108,-120.263,486.67,0,7740
257,MIT (temp),7,6,36.2467,-120.263,344.17,0,7640
262,SGT (temp),8,7,36.2367,-120.381,481.07,0,6380
263,SUB (temp),9,8,36.3075,-120.251,270.41,0,7520
266,TRA (temp),10,9,36.1657,-120.309,246.51,0,7700
267,VEW (temp),11,10,36.2108,-120.313,456.13,0,7720
268,YUB (temp),12,11,36.1447,-120.171,287.34,0,7360
487,Gukasian,13,12,41.038,43.854,343.53,-999,-999
495,BRAN,14,13,37.047,-121.984,476.54,0,0
548,WAHO,15,14,36.972,-121.995,388.33,0,0
547,UCSC,16,15,37.001,-122.062,713.59,0,0
519,LGPC,17,16,37.172,-122.01,594.83,0,0
543,Stanford Park. Garage,18,17,37.432,-122.172,336.59,0,0
552,Ambralauri,19,18,42.5215,43.1549,399.61,-999,-999
554,Iri,20,19,42.517,43.551,437.72,-999,-999
555,Oni,21,20,42.583,43.44,392.67,-999,-999
553,Baz,22,21,42.5729,43.4363,476.62,-999,-999
556,Zem,23,22,42.522,43.305,432.58,-999,-999
573,Coolwater,24,23,34.851,-116.858,352.98,0,0
578,Lucerne,25,24,34.568,-116.612,1369,0,520
192,SMART1 C00,27,25,24.6738,121.765,309.41,-999,-999
193,SMART1 I06,28,26,24.6721,121.765,309.41,-999,-999
194,SMART1 I12,29,27,24.6755,121.764,275.82,-999,-999
195,SMART1 M01,30,28,24.6822,121.767,268.37,-999,-999
196,SMART1 M07,31,29,24.6649,121.762,327.61,-999,-999
197,SMART1 O01,32,30,24.6922,121.769,267.67,-999,-999
198,SMART1 O07,33,31,24.6561,121.762,314.33,-999,-999
274,SMART1 E01,34,32,24.6487,121.764,308.39,-999,-999
275,SMART1 E02,35,33,24.6296,121.761,671.52,-999,-999
166,USC Cash Baugh Ranch,36,34,37.679,-118.813,323.54,0,3340
164,Long Valley Fire Sta,37,35,37.568,-118.752,377.41,0,2760
165,Mammoth Elem School,38,36,37.639,-118.863,350.54,0,3420
167,USC McGee Creek Inn,39,37,37.586,-118.781,364.84,0,2900
171,USC Convict Lakes,40,40,37.595,-118.85,454.12,0,2940
168,Cashbaugh (CBR),41,41,37.679,-118.825,337.6,0,3420
169,Convict Lakes (CON),42,42,37.59,-118.853,472.2,0,2900
162,Fish & Game (FIS),43,43,37.614,-118.83,373.18,0,3120
170,Hot Creek (HCF),44,44,37.642,-118.85,295.93,0,3420
173,McGee Creek (MGE),45,45,37.561,-118.787,425.81,0,2640
174,USC McGee Creek,46,52,37.554,-118.798,653.56,0,2520
278,SMART1 M06,47,60,24.6651,121.768,308.39,-999,-999
277,SMART1 I07,48,61,24.672,121.764,309.41,-999,-999
276,SMART1 I01,49,62,24.6755,121.765,275.82,-999,-999
365,SMART1 O02,50,63,24.6871,121.778,285.09,-999,-999
366,SMART1 O04,51,64,24.6703,121.784,288.24,-999,-999
367,SMART1 O06,52,65,24.6565,121.771,293.46,-999,-999
368,SMART1 O08,53,66,24.6594,121.752,357.43,-999,-999
369,SMART1 O10,54,67,24.6779,121.745,320.11,-999,-999
370,SMART1 O12,55,68,24.691,121.759,303.36,-999,-999
87,Bajestan,56,69,34.51,58.18,377.56,-999,-999
88,Boshrooyeh,57,70,33.88,57.43,324.57,-999,-999
90,Ferdows,58,71,34.01,58.16,302.64,-999,-999
91,Kashmar,59,72,35.23,58.45,280.26,-999,-999
92,Sedeh,60,73,33.33,59.23,354.37,-999,-999
666,Sylmar - Converter Sta,61,74,34.311,-118.49,251.24,100,4280
667,Sylmar - Converter Sta East,62,75,34.312,-118.481,370.52,120,4380
653,Rinaldi Receiving Sta,63,77,34.281,-118.478,282.25,160,3820
665,Stone Canyon,64,78,34.1062,-118.454,621.93,320,320
557,Erzincan,65,95,39.75,39.5,352.05,-999,-999
579,Mission Creek Fault,66,100,33.905,-116.419,355.42,480,1720
29,Anza Post Office,67,103,33.5556,-116.674,360.45,0,1220
26,Santa Anita Dam,68,104,34.185,-118.018,667.13,20,1420
31,Borrego Springs Fire Sta,69,105,33.26,-116.37,338.54,140,1400
86,Cachuma Dam Toe,70,106,34.58,-119.98,465.51,0,0
33,Carbon Canyon Dam,71,108,33.9121,-117.838,235,360,2440
21,Cedar Springs Allen Ranch,72,111,34.2778,-117.335,813.48,0,1420
20,Cedar Springs Pumphouse,73,112,34.31,-117.3,477.22,0,1460
22,Colton - So Cal Edison,74,113,34.059,-117.312,301.95,200,580
4,El Centro Array #9,75,117,32.794,-115.549,213.44,380,2900
34,Fairmont Dam,76,121,34.704,-118.426,634.33,0,0
40,Lake Hughes #4,77,126,34.65,-118.478,600.06,0,0
632,Lake Hughes #4 - Camp Mend,78,24469,34.65,-118.478,600.06,0,0
41,Lake Hughes #9,79,127,34.608,-118.558,670.84,20,320
39,Lake Hughes #12,80,128,34.571,-118.56,602.1,20,320
17,LB - Terminal Island,81,130,33.77,-118.23,217.92,760,3040
46,Palmdale Fire Station,82,262,34.5781,-118.114,452.86,0,0
47,Pasadena - Old Seismo Lab,83,266,34.1486,-118.171,969.07,20,680
48,Pearblossom Pump,84,269,34.5083,-117.922,529.09,0,560
49,Port Hueneme,85,272,34.145,-119.206,248.98,680,3540
651,Port Hueneme - Naval Lab.,86,25281,34.145,-119.206,248.98,680,3540
25,Puddingstone Dam (Abutment),87,278,34.091,-117.808,421.44,160,320
45,Pacoima Dam (upper left abut),88,279,34.334,-118.396,2016.13,20,320
646,Pacoima Dam (upper left),89,24207,34.334,-118.396,2016.13,20,320
18,San Onofre - So Cal Edison,90,280,33.37,-117.56,442.88,0,1400
54,UCSB - Fluid Mech Lab,91,282,34.41,-119.85,322.42,0,3820
7,Santa Barbara Courthouse,92,283,34.423,-119.7,514.99,0,0
52,Santa Felita Dam (Outlet),93,285,34.46,-118.753,389,320,2160
138,Superstition Mtn Camera,94,286,32.955,-115.825,362.38,700,1200
55,Upland - San Antonio Dam,95,287,34.155,-117.675,487.23,160,1100
57,Whittier Narrows Dam,96,289,34.02,-118.053,298.68,40,2400
482,Whittier Narrows Dam upstream,97,289,34.02,-118.053,298.68,40,2400
1244,Whittier Narrows Dam downstream,98,289,34.02,-118.053,298.68,40,2400
27,Wrightwood - 6074 Park Dr,99,290,34.36,-117.63,486,0,1040
50,San Diego Gas & Electric,100,314,32.719,-117.163,354.06,0,0
1174,Lamont 362,101,362,40.67,30.666,517,-999,-999
1175,Lamont 375,102,375,40.743,30.876,454.2,-999,-999
121,El Centro Array #10,103,412,32.7806,-115.568,202.85,380,2920
51,San Juan Capistrano,104,465,33.4894,-117.671,459.37,0,2000
1176,Lamont 531,105,531,40.703,30.855,638.39,-999,-999
23,Devil's Canyon,106,620,34.21,-117.33,667.13,0,0
447,Norwalk - Imp Hwy S Grnd,107,634,33.915,-118.07,279.46,700,3820
624,LA - Sepulveda VA Hospital,108,637,34.2489,-118.479,380.06,360,3580
620,LA - Brentwood VA Hospital,109,638,34.063,-118.463,416.58,320,580
618,Jensen Filter Plant Administrative Building,110,655,34.312,-118.496,373.07,120,4220
448,Orange Co. Reservoir,111,697,33.9354,-117.884,415.69,360,2500
336,Lake Mathews Dike Toe,112,707,33.852,-117.451,592.42,0,0
401,Garvey Res. - Control Bldg,113,709,34.049,-118.112,468.18,440,2340
327,Colton Interchange - Vault,114,754,34.06,-117.3,274.98,320,1660
123,El Centro Array #12,115,931,32.718,-115.637,196.88,320,2620
384,Brea Dam (Downstream),116,951,33.89,-117.927,437.5,580,4080
385,Brea Dam (L Abut),117,951,33.8904,-117.926,437.5,580,4080
128,El Centro Array #5,118,952,32.855,-115.466,205.63,420,3380
127,El Centro Array #4,119,955,32.864,-115.432,208.91,580,3540
131,El Centro Array #8,120,958,32.811,-115.532,206.08,380,2960
36,Gormon - Oso Pump Plant,121,994,34.808,-118.72,308.35,0,1440
35,Fort Tejon,122,998,34.87,-118.9,394.18,0,0
489,APEEL 2 - Redwood City,123,1002,37.528,-122.256,133.11,0,0
30,Bakersfield - Harvey Aud,124,1004,35.37,-119.021,241.41,0,5280
13,Cholame - Shandon Array #2,125,1013,35.733,-120.29,184.75,0,4760
205,Parkfield - Cholame 2WA,126,36228,35.733,-120.29,173.02,0,4760
14,Cholame - Shandon Array #5,127,1014,35.697,-120.328,289.56,0,3820
210,Parkfield - Cholame 5W,128,36227,35.697,-120.328,236.59,0,3820
15,Cholame - Shandon Array #8,129,1015,35.671,-120.359,256.82,0,2060
212,Parkfield - Cholame 8W,130,36226,35.671,-120.359,256.82,0,2060
12,Cholame - Shandon Array #12,131,1016,35.639,-120.404,408.93,0,1060
202,Parkfield - Cholame 12W,132,36229,35.639,-120.404,359.03,0,1060
3,Ferndale City Hall,133,1023,40.576,-124.263,219.31,0,0
53,Tehachapi Pump,134,1027,34.9417,-118.827,669.48,0,740
10,Hollister City Hall,135,1028,36.85,-121.4,198.77,0,0
516,Hollister - SAGO Vault,136,1032,36.765,-121.446,621.2,0,0
38,Isabella Dam (Aux Abut),137,1035,35.644,-118.474,591,0,0
42,Maricopa Array #1,138,1041,35.997,-119.486,303.79,0,7780
43,Maricopa Array #2,139,1042,35.04,-119.429,443.85,0,4740
44,Maricopa Array #3,140,1043,35.078,-119.401,441.25,0,5080
65,Oroville Seismograph Station,141,1051,39.55,-121.5,680.37,0,0
1169,Lamont 1058,142,1058,40.755,31.015,529.18,-999,-999
1170,Lamont 1059,143,1059,40.745,30.872,551.3,-999,-999
1171,Lamont 1060,144,1060,40.777,30.613,782,-999,-999
1172,Lamont 1061,145,1061,40.72,30.792,481,-999,-999
1173,Lamont 1062,146,1062,40.723,30.82,338,-999,-999
9,San Luis Obispo,147,1083,35.285,-120.661,493.5,0,0
8,Taft Lincoln School,148,1095,35.15,-119.46,385.43,0,0
56,Wheeler Ridge - Ground,149,1102,35.027,-118.791,347.67,0,920
11,Golden Gate Park,150,1117,37.77,-122.48,874.72,0,0
118,EC County Center FF,151,1136,32.793,-115.562,192.05,380,2920
484,El Centro Imp. Co. Cent,152,1335,32.793,-115.562,192.05,380,2920
492,APEEL 9 - Crystal Springs Res,153,1161,37.47,-122.32,449.64,0,0
246,Pleasant Valley P.P. - bldg,154,1162,36.308,-120.249,257.38,0,7520
272,Pleasant Valley P.P. - FF,155,1162,36.308,-120.249,257.38,0,7520
247,Pleasant Valley P.P. - yard,156,1162,36.308,-120.249,257.38,0,7520
143,Del Valle Dam (Toe),157,1265,37.62,-121.75,403.37,0,0
63,Shelter Cove Sta A,158,1277,40.039,-124.064,594.83,0,0
64,Shelter Cove Sta B,159,1278,40.03,-124.07,518.98,0,0
119,El Centro - Meloland Geot. Array,160,1336,32.773,-115.447,264.57,360,2700
62,Petrolia General Store,161,1398,40.324,-124.286,368.72,0,0
16,Temblor pre-1969,162,1438,35.71,-120.17,527.92,0,5400
72,Johnson Ranch,163,1493,39.425,-121.521,589.8,0,0
73,Nelson Ranch (OR7),164,1496,39.4842,-121.51,514.91,0,0
69,Broadbeck Residence,165,1542,39.446,-121.55,427.38,0,0
70,DWR Garage,166,1543,39.51,-121.505,634.85,0,0
68,Medical Center,167,1544,39.507,-121.54,519.15,0,0
66,Oroville Airport,168,1545,39.496,-121.614,391.76,0,0
67,Up & Down Cafe (OR1),169,1546,39.4325,-121.604,377.25,0,0
74,Pacific Heights Rd (OR4),170,1549,39.4558,-121.603,352.22,0,0
71,Duffy Residence (OR5),171,1550,39.445,-121.574,418.97,0,0
75,Summit Ave (OR6),172,1551,39.4488,-121.49,548.76,0,0
527,Palo Alto - SLAC Lab,173,1601,37.42,-122.21,425.3,0,0
258,Oil City,174,1604,36.229,-120.36,398.49,0,6660
264,Skunk Hollow,175,1605,36.275,-120.306,480.32,0,7280
253,Burnett Construction,176,1606,36.138,-120.357,352.2,0,7160
251,Anticline Ridge Free-Field,177,1607,36.233,-120.333,478.63,0,6980
252,Anticline Ridge Pad,178,1607,36.233,-120.333,478.63,0,6980
260,Oil Fields Fire Station,179,1608,36.247,-120.314,474.15,0,7200
269,Oil Fields Fire Station - FF,180,1608,36.247,-120.314,474.15,0,7200
270,Oil Fields Fire Station - Pad,181,1608,36.247,-120.314,474.15,0,7200
261,Palmer Ave,182,1609,36.209,-120.292,458.09,0,7760
271,Transmitter Hill,183,1651,36.249,-120.343,477.25,0,6960
293,Anderson Dam (Downstream),184,1652,37.166,-121.628,488.77,0,0
494,Anderson Dam (L Abut),185,1652,37.166,-121.628,488.77,0,0
303,San Justo Dam (L Abut),186,1655,36.827,-121.445,543.63,0,0
304,San Justo Dam (R Abut),187,1655,36.827,-121.445,543.63,0,0
518,Hollister Differential Array,188,1656,36.888,-121.413,215.54,0,0
300,Hollister Differential Array #3,189,1656,36.888,-121.413,215.54,0,0
317,McGee Creek - Surface,193,1661,37.55,-118.811,359.23,0,2400
513,Golden Gate Bridge,194,1678,37.808,-122.476,584.17,0,0
511,Fremont - Emerson Court,195,1686,37.535,-121.929,284.79,0,0
544,Sunnyvale - Colton Ave.,196,1695,37.402,-122.025,267.71,0,0
1,Carroll College,197,2022,46.58,-112.03,593.35,-999,-999
2,Helena Fed Bldg,198,2229,46.59,-112.04,551.82,-999,-999
58,Managua ESSO,199,3501,12.145,-86.322,288.77,-999,-999
130,El Centro Array #7,200,5028,32.829,-115.504,210.51,400,3120
349,Sunnymead,201,5038,33.946,-117.151,340.32,0,1300
332,Hurkey Creek Park,202,5043,33.6758,-116.68,407.61,0,0
150,Anza - Pinyon Flat,203,5044,33.607,-116.453,724.89,20,20
151,Anza - Terwilliger Valley,204,5045,33.48,-116.59,617.78,20,20
154,Rancho De Anza,205,5047,33.348,-116.4,329,60,60
153,Borrego Air Ranch,206,5049,33.19,-116.28,336.07,100,1860
135,Parachute Test Site,207,5051,32.929,-115.701,348.69,380,3060
136,Plaster City,208,5052,32.79,-115.86,316.64,660,660
110,Calexico Fire Station,209,5053,32.6695,-115.493,231.23,340,2720
108,Bonds Corner,210,5054,32.6931,-115.338,223.03,380,3040
133,Holtville Post Office,211,5055,32.8114,-115.379,202.89,400,3320
120,El Centro Array #1,212,5056,32.96,-115.319,237.33,800,3360
126,El Centro Array #3,213,5057,32.894,-115.38,162.94,780,3800
122,El Centro Array #11,214,5058,32.7517,-115.595,196.25,380,2980
124,El Centro Array #13,215,5059,32.709,-115.683,249.92,700,2720
109,Brawley Airport,216,5060,32.991,-115.513,208.71,620,3040
111,Calipatria Fire Station,217,5061,33.1266,-115.516,205.78,380,3580
200,Salton Sea Wildlife Refuge,218,5062,33.1774,-115.616,191.14,180,1720
114,Coachella Canal #4,219,5066,33.36,-115.59,336.49,420,420
333,Indio,220,5067,33.747,-116.214,307.54,800,1560
330,Fun Valley,221,5069,33.925,-116.389,388.63,140,1740
340,North Palm Springs,222,5070,33.924,-116.543,344.67,840,1620
338,Morongo Valley Fire Station,223,5071,34.0486,-116.578,396.41,20,1840
351,Whitewater Trout Farm,224,5072,33.99,-116.656,425.02,100,1720
326,Cabazon,225,5073,33.9176,-116.783,376.91,0,1240
668,Topanga - Fire Sta,226,5081,34.084,-118.6,505.97,320,320
663,Santa Susana Ground,227,5108,34.232,-118.71,715.12,20,320
125,El Centro Array #2,228,5115,32.916,-115.366,188.78,840,3700
328,Cranston Forest Station,229,5157,33.738,-116.838,425.17,0,1160
129,El Centro Array #6,230,5158,32.839,-115.487,203.22,420,3220
152,Anza Fire Station,231,5160,33.5558,-116.674,360.45,0,1220
132,El Centro Differential Array,232,5165,32.796,-115.535,202.26,380,2900
483,Imperial Valley Wildlife Liquefaction Array,233,5210,33.0976,-115.531,179,480,3560
324,Anza - Red Mountain,234,5224,33.64,-116.86,680.37,0,0
347,Santa Rosa Mountain,235,5230,33.568,-116.51,678.69,20,20
325,Anza - Tule Canyon,236,5231,33.4593,-116.644,530.89,0,0
320,Site 1,237,6097,62.202,-124.37,605.04,-999,-999
321,Site 2,238,6098,62.234,-124.168,605.04,-999,-999
322,Site 3,239,6099,62.126,-123.833,605.04,-999,-999
112,Cerro Prieto,240,6604,32.421,-115.301,471.53,460,500
117,Delta,241,6605,32.356,-115.195,242.05,700,2260
139,Victoria,242,6610,32.289,-115.103,242.05,240,2180
106,Aeropuerto Mexicali,243,6616,32.651,-115.332,259.86,360,3040
116,Cucapah,244,6617,32.545,-115.235,242.05,320,2640
107,Agrarias,245,6618,32.621,-115.301,242.05,360,2960
137,SAHOP Casa Flores,246,6619,32.618,-115.436,259.59,320,2700
113,Chihuahua,247,6621,32.484,-115.24,242.05,260,2180
115,Compuertas,248,6622,32.573,-115.083,259.86,300,2640
172,Victoria Hospital Sotano,249,6624,32.289,-115.1,242.05,240,2200
76,Barcis,250,8002,46.187,12.554,496.46,-999,-999
77,Codroipo,251,8004,45.959,12.984,249.28,-999,-999
78,Conegliano,252,8005,45.883,12.288,352.05,-999,-999
79,Feltre,253,8007,46.019,11.912,356.39,-999,-999
80,Tolmezzo,254,8012,46.382,12.982,505.23,-999,-999
83,Forgaria Cornino,255,8014,46.221,12.997,412.37,-999,-999
84,San Rocco,256,8022,46.226,12.993,649.67,-999,-999
82,Buia,257,8023,46.222,13.09,310.68,-999,-999
93,Tabas,258,9101,33.58,56.92,766.77,-999,-999
89,Dayhook,259,9102,33.3,57.52,471.53,-999,-999
81,Karakyr,260,9201,40.35,63.47,259.59,-999,-999
486,Poe Road (temp),261,9400,33.097,-115.751,316.64,340,2740
485,Kornbloom Road (temp),262,9401,33.125,-115.665,266.01,280,2420
134,Niland Fire Station,263,11023,33.239,-115.512,212,200,1580
140,Westmorland Fire Sta,264,11369,33.037,-115.623,193.67,400,3080
341,Palm Springs Airport,265,12025,33.829,-116.512,312.47,380,380
334,Indio - Coachella Canal,266,12026,33.717,-116.155,339.02,1020,1160
329,Desert Hot Springs,267,12149,33.962,-116.509,359,340,1760
342,Puerta La Cruz,268,12168,33.324,-116.683,442.7,0,1200
346,San Jacinto - Valley Cemetary,269,12202,33.76,-116.96,330.74,0,0
345,San Jacinto - Soboba,270,12204,33.797,-116.88,447.22,0,1440
348,Silent Valley - Poppet Flat,271,12206,33.851,-116.852,659.09,0,1440
37,Hemet Fire Station,272,12331,33.729,-116.979,328.09,0,0
658,San Jacinto - CDF Fire Station,273,12673,33.787,-116.958,306.76,0,1300
399,Featherly Park - Maint,274,13122,33.869,-117.709,367.54,0,1380
344,Riverside Airport,275,13123,33.951,-117.446,389.95,160,320
596,Newport Bch - Irvine Ave. F.S,276,13160,33.634,-117.902,339.6,320,3460
350,Temecula - 6th & Mercedes,277,13172,33.496,-117.149,416.15,0,0
405,Huntington Beach - Lake St,278,13197,33.662,-117.997,315.52,600,3680
339,Murrieta Hot Springs,279,13198,33.599,-117.132,532.85,0,0
352,Winchester Bergman Ran,280,13199,33.64,-117.094,537.95,0,0
353,Winchester Page Bros R,281,13201,33.718,-117.022,287.87,0,0
644,Newport Bch - Newp & Coast,282,13610,33.623,-117.931,340.65,320,3440
616,Hemet - Ryan Airfield,283,13660,33.731,-117.023,290.93,0,0
659,San Pedro - Palos Verdes,284,14159,33.722,-118.309,477.92,0,1540
406,Inglewood - Union Oil,285,14196,33.905,-118.279,316.02,580,3280
427,LB - Recreation Park,286,14241,33.778,-118.133,282,660,2980
426,LB - Rancho Los Cerritos,287,14242,33.84,-118.194,302.73,600,3220
397,Downey - Co Maint Bldg,288,14368,33.924,-118.167,271.9,880,5520
424,LB - Harbor Admin FF,289,14395,33.754,-118.2,230,720,2500
407,LA - 116th St School,290,14403,33.929,-118.26,301,740,4540
652,Rancho Palos Verdes - Hawth,291,14404,33.746,-118.396,580.03,0,1540
654,Rolling Hills Est-Rancho Vista,292,14405,33.787,-118.356,473.25,400,1860
630,LB - City Hall,293,14560,33.768,-118.196,322,680,2640
605,Seal Beach - Office Bldg,294,14578,33.757,-118.084,296.62,600,3040
566,Amboy,295,21081,34.56,-115.743,382.93,0,1300
583,Yermo Fire Station,296,22074,34.904,-116.823,353.63,0,0
582,Twentynine Palms,297,22161,34.021,-116.009,635.01,20,20
335,Joshua Tree,298,22170,34.13,-116.314,379.32,0,2220
337,Landers Fire Station,299,22T13,34.274,-116.392,331.02,0,1180
331,Hesperia,300,23321,34.448,-117.327,337.56,0,1180
343,Rancho Cucamonga - Law and Justince Center FF Foothill and Haven,301,23497,34.104,-117.574,390.18,200,400
463,Pomona - 4th & Locust FF,302,23525,34.056,-117.748,384.44,200,320
580,San Bernardino - E & Hospitality,303,23542,34.065,-117.292,296.97,340,1820
569,Barstow,304,23559,34.887,-117.047,370.08,0,840
595,Mt Baldy - Elementary Sch,305,23572,34.233,-117.661,444.74,0,1100
608,Wrightwood - Nielson Ranch,306,23573,34.314,-117.545,506,0,1480
609,Wrightwood - Swarthout,307,23574,34.369,-117.658,476.64,0,860
671,Wrightwood - Jackson Flat,308,23590,34.381,-117.737,662.7,0,0
639,Littlerock - Brainard Can,309,23595,34.486,-117.98,485.67,0,0
600,Phelan - Wilson Ranch,310,23597,34.467,-117.52,333.41,0,1800
601,Rancho Cucamonga - Deer Can,311,23598,34.169,-117.579,509.1,20,1160
656,San Bernardino - CSUSB Gr,312,23672,34.183,-117.321,336.92,320,1400
479,Vasquez Rocks Park,313,24047,34.492,-118.327,996.43,0,1200
434,Leona Valley #5 - Ritter,314,24055,34.6,-118.241,375.22,0,0
377,Arleta - Nordhoff Fire Sta,315,24087,34.236,-118.439,297.71,360,2140
450,Pacoima Kagel Canyon,316,24088,34.296,-118.375,508.08,160,2040
655,Rosamond - Airport,317,24092,34.87,-118.206,320.75,0,1200
408,LA - Baldwin Hills,318,24157,34.009,-118.361,297.07,320,3320
645,Pacoima Dam (downstr),319,24207,34.334,-118.396,2016.13,20,320
24,Lake Hughes #1,320,24271,34.674,-118.43,425.34,0,0
465,Rosamond - Goode Ranch,321,24274,34.827,-118.265,275.12,0,1080
392,Castaic - Hasley Canyon,322,24277,34.459,-118.65,421.05,320,3060
19,Castaic - Old Ridge Route,323,24278,34.564,-118.642,450.28,320,1520
444,Newhall - Fire Sta,324,24279,34.387,-118.533,269.14,420,1440
441,Moorpark - Fire Sta,325,24283,34.288,-118.881,341.58,320,3300
5,LA - Hollywood Stor FF,326,24303,34.09,-118.339,316.46,320,2020
635,Leona Valley #1,327,24305,34.594,-118.242,499.31,0,0
636,Leona Valley #2,328,24306,34.595,-118.243,435.64,0,0
637,Leona Valley #3,329,24307,34.596,-118.243,499.31,0,0
638,Leona Valley #4,330,24308,34.598,-118.242,421.46,0,0
435,Leona Valley #6,331,24309,34.604,-118.244,327.44,0,0
612,Antelope Buttes,332,24310,34.758,-118.361,572.57,0,1340
410,LA - Century City CC North,333,24389,34.063,-118.418,277.98,320,2460
411,LA - Century City CC South,334,24390,34.062,-118.416,277.98,340,2480
437,Malibu - Point Dume Sch,335,24396,34.013,-118.8,349.54,0,780
442,Mt Wilson - CIT Seis Sta,336,24399,34.224,-118.057,680.37,0,0
419,LA - Obregon Park,337,24400,34.037,-118.178,349.43,380,2380
467,San Marino - SW Academy,338,24401,34.115,-118.13,379.43,160,1700
374,Altadena - Eaton Canyon,339,24402,34.177,-118.096,375.16,160,1280
476,Tarzana - Cedar Hill,340,24436,34.16,-118.534,257.21,220,1020
607,Tarzana - Cedar Hill A,341,24436,34.16,-118.534,257.21,220,1020
373,Alhambra - Fremont School,342,24461,34.07,-118.15,549.75,320,1800
634,Lancaster - Fox Airfield Grnd,343,24475,34.739,-118.214,268.65,0,1320
474,Sylmar - Olive View Med FF,344,24514,34.326,-118.444,440.54,100,4980
647,Palmdale - Hwy 14 & Palmdale,345,24521,34.581,-118.135,551.56,0,0
633,Lake Hughes #4B - Camp Mend,346,24523,34.65,-118.477,523.54,0,0
432,Lancaster - Med Off FF,347,24526,34.688,-118.156,339.14,0,1500
662,Santa Monica City Hall,348,24538,34.011,-118.49,336.2,600,2500
586,Elizabeth Lake,349,24575,34.662,-118.387,326.19,0,0
611,Anaverde Valley - City R,350,24576,34.58,-118.199,349.6,0,0
575,Fort Irwin,351,24577,35.268,-116.684,367.43,0,0
643,Neenach - Sacatara Ck,352,24586,34.848,-118.536,337.63,0,1880
590,LA - City Terrace,353,24592,34.053,-118.171,365.22,320,2180
592,Los Angeles - 7-story Univ Hospital (FF),354,24605,34.062,-118.198,332.28,320,2120
631,Lake Hughes #12A,356,24607,34.571,-118.56,602.1,20,320
591,LA - Temple & Hope,357,24611,34.059,-118.246,452.15,320,2120
622,LA - Pico & Sentous,358,24612,34.043,-118.271,304.68,320,2140
660,Sandberg - Bald Mtn,359,24644,34.743,-118.724,421,0,700
625,LA - UCLA Grounds,360,24688,34.068,-118.439,398.42,320,1140
661,Santa Barbara - UCSB Goleta,361,25091,34.422,-119.851,312.98,0,3540
650,Point Mugu - Laguna Peak,362,25148,34.109,-119.065,527.7,320,320
610,Anacapa Island,363,25169,34.016,-119.362,501.75,0,0
614,Camarillo,364,25282,34.208,-119.079,351.4,320,320
669,Ventura - Harbor & California,365,25340,34.276,-119.293,358.95,1160,5940
568,Baker Fire Station,366,32075,35.271,-116.066,324.62,0,0
570,Boron Fire Station,367,33083,35.002,-117.65,291.03,0,0
640,Mojave - Hwys 14 & 58,368,34093,35.07,-118.175,331.74,0,1060
641,Mojave - Oak Creek Canyon,369,34237,35.042,-118.377,422.73,0,860
216,Parkfield - Fault Zone 12,370,36138,35.899,-120.433,265.21,0,5280
242,Parkfield - Vineyard Cany 3W,371,36176,35.922,-120.534,308.87,0,4360
240,Parkfield - Vineyard Cany 2E,372,36177,35.973,-120.467,467.76,0,4600
204,Parkfield - Cholame 2E,373,36230,35.751,-120.259,522.74,0,5000
213,Parkfield - Fault Zone 1,374,36407,35.758,-120.307,178.27,0,5120
221,Parkfield - Fault Zone 3,375,36408,35.803,-120.334,211.74,0,5400
207,Parkfield - Cholame 3W,376,36410,35.724,-120.294,230.57,0,4640
209,Parkfield - Cholame 4W,377,36411,35.718,-120.304,410.4,0,4540
208,Parkfield - Cholame 4AW,378,36412,35.707,-120.316,283.38,0,4220
220,Parkfield - Fault Zone 2,379,36413,35.787,-120.334,294.26,0,5320
222,Parkfield - Fault Zone 4,380,36414,35.836,-120.395,220.75,0,5440
227,Parkfield - Gold Hill 1W,381,36415,35.818,-120.378,214.43,0,5380
229,Parkfield - Gold Hill 2W,382,36416,35.812,-120.391,290.5,0,5240
231,Parkfield - Gold Hill 3W,383,36420,35.796,-120.411,510.92,0,0
228,Parkfield - Gold Hill 2E,384,36421,35.843,-120.348,360.92,0,5560
235,Parkfield - Stone Corral 2E,385,36422,35.81,-120.282,566.33,0,5820
224,Parkfield - Fault Zone 7,386,36431,35.871,-120.404,297.46,0,5560
234,Parkfield - Gold Hill 6W,387,36432,35.738,-120.507,232.44,0,0
232,Parkfield - Gold Hill 4W,388,36433,35.785,-120.444,421.2,0,0
233,Parkfield - Gold Hill 5W,389,36434,35.77,-120.477,441.37,0,0
236,Parkfield - Stone Corral 3E,390,36437,35.833,-120.27,565.08,0,6320
237,Parkfield - Stone Corral 4E,391,36438,35.855,-120.281,492.43,0,6300
230,Parkfield - Gold Hill 3E,392,36439,35.87,-120.334,450.61,0,5580
244,Parkfield - Vineyard Cany 5W,393,36440,35.885,-120.565,320.39,0,4120
245,Parkfield - Vineyard Cany 6W,394,36441,35.861,-120.6,392.24,0,0
226,Parkfield - Fault Zone 9,395,36443,35.879,-120.445,372.26,0,5280
214,Parkfield - Fault Zone 10,396,36444,35.872,-120.422,372.73,0,5440
218,Parkfield - Fault Zone 15,397,36445,35.921,-120.481,307.59,0,4740
243,Parkfield - Vineyard Cany 4W,398,36446,35.905,-120.55,386.19,0,4320
241,Parkfield - Vineyard Cany 2W,399,36447,35.927,-120.509,438.74,0,4460
239,Parkfield - Vineyard Cany 1W,400,36448,35.934,-120.497,284.21,0,4420
225,Parkfield - Fault Zone 8,401,36449,35.878,-120.381,308.84,0,5540
206,Parkfield - Cholame 3E,402,36450,35.77,-120.247,397.36,0,5220
211,Parkfield - Cholame 6W,403,36451,35.684,-120.342,251.57,0,2880
203,Parkfield - Cholame 1E,404,36452,35.743,-120.277,326.64,0,4880
215,Parkfield - Fault Zone 11,405,36453,35.896,-120.398,541.73,0,5440
223,Parkfield - Fault Zone 6,406,36454,35.859,-120.42,266.65,0,5420
238,Parkfield - Vineyard Cany 1E,407,36455,35.957,-120.481,381.27,0,4460
217,Parkfield - Fault Zone 14,408,36456,35.908,-120.458,246.07,0,5040
219,Parkfield - Fault Zone 16,409,36457,35.927,-120.456,384.26,0,4860
248,Slack Canyon,410,46175,36.034,-120.59,648.09,0,3580
201,Cantua Creek School,411,46314,36.503,-120.32,274.73,0,6240
254,Coalinga-14th & Elm (Old CHP),412,46617,36.151,-120.353,286.41,0,7380
250,Anticline Ridge - Palmer Ave,413,46T05,36.21,-120.305,463.2,0,7740
259,Oil Fields - Skunk Hollow,414,46T06,36.282,-120.305,477.09,0,7280
255,Harris Ranch - Hdqtrs (temp),415,46T07,36.343,-120.216,274.15,0,7380
297,Gilroy - Gavilan Coll.,416,47006,36.973,-121.568,729.65,0,0
294,Capitola,417,47125,36.973,-121.953,288.62,0,0
60,San Juan Bautista 24 Polk St,418,47126,36.86,-121.54,335.5,0,0
538,Salinas - John & Work,419,47179,36.671,-121.642,279.56,0,0
323,SAGO South - Surface,420,47189,36.753,-121.395,608.67,0,0
101,SJB Overpass Bent 3 g.l.,421,47315,36.862,-121.578,367.43,0,0
102,San Juan Bautista - Hwy 101/156 Overpass,422,47315,36.8619,-121.578,362.98,0,0
522,Monterey City Hall,423,47377,36.597,-121.897,638.63,0,0
59,Gilroy Array #1,424,47379,36.973,-121.572,1428.14,0,0
96,Gilroy Array #2,425,47380,36.982,-121.556,270.84,0,0
97,Gilroy Array #3,426,47381,36.987,-121.536,349.85,0,0
517,Hollister - South & Pine,427,47524,36.848,-121.397,282.14,0,0
265,Sulphur Baths (temp),428,47T03,36.121,-120.397,617.43,0,5560
155,Convict Creek,429,54099,37.614,-118.831,382.12,0,3120
160,Benton,430,54100,37.818,-118.475,370.94,0,0
358,Tinemaha Res. Free Field,431,54101,37.054,-118.229,467.62,0,1380
354,Bishop - LADWP South St,432,54171,37.36,-118.396,303.47,0,540
158,Long Valley Dam (Downst),433,54214,37.588,-118.705,537.16,0,2780
159,Long Valley Dam (L Abut),434,54214,37.588,-118.705,537.16,0,2780
156,Long Valley Dam (Upr L Abut),435,54214,37.588,-118.705,537.16,0,2780
157,Mammoth Lakes H. S.,436,54301,37.641,-118.963,346.82,0,2980
161,Bishop - Paradise Lodge,437,54424,37.481,-118.602,585.12,0,1480
356,Zack Brothers Ranch,438,54428,37.662,-118.398,316.19,0,0
355,Lake Crowley - Shehorn Res.,439,54T03,37.561,-118.743,456.83,0,2720
357,Mammoth Lakes Sheriff Subst.,440,54T04,37.638,-118.892,529.39,0,3400
301,Los Banos,441,56012,37.106,-120.825,262.05,0,0
295,Corralitos,442,57007,37.05,-121.803,462.24,0,0
147,Tracy - Sewage Treatm Plant,443,57063,37.46,-121.42,650.05,0,0
144,Fremont - Mission San Jose,444,57064,37.53,-121.919,367.57,0,0
292,Agnews State Hospital,445,57066,37.397,-121.952,239.69,0,0
146,San Ramon Fire Station,446,57134,37.78,-121.98,384.47,0,0
145,San Ramon - Eastman Kodak,447,57187,37.729,-121.928,377.51,0,0
100,Halls Valley,448,57191,37.338,-121.714,281.61,0,0
95,Coyote Lake Dam - Southwest Abutment,449,57217,37.118,-121.55,561.43,0,0
98,Gilroy Array #4,450,57382,37.001,-121.522,221.78,0,0
99,Gilroy Array #6,451,57383,37.026,-121.484,663.31,0,0
298,Gilroy Array #7,452,57425,37.033,-121.434,333.85,0,0
512,Gilroy - Historic Bldg.,453,57476,37.009,-121.569,308.55,0,0
506,Coyote Lake Dam (Downst),454,57504,37.124,-121.551,295.01,0,0
148,Livermore - Fagundas Ranch,455,57T01,37.753,-121.772,387.04,0,0
149,Livermore - Morgan Terr Park,456,57T02,37.819,-121.795,550.88,0,0
529,Point Bonita,457,58043,37.822,-122.527,1315.92,0,0
540,Saratoga - Aloha Ave,458,58065,37.255,-122.031,380.89,0,0
546,Treasure Island,459,58117,37.825,-122.373,155.11,0,0
549,Woodside,461,58127,37.429,-122.258,453.98,0,0
533,SF - Diamond Heights,462,58130,37.74,-122.432,582.9,0,0
534,SF - Pacific Heights,463,58131,37.79,-122.429,1249.86,0,0
532,SF - Cliff House,464,58132,37.778,-122.513,614.57,0,0
537,SF - Telegraph Hill,465,58133,37.803,-122.408,585.23,0,0
308,UCSC Lick Observatory,466,58135,37.001,-122.06,713.59,0,0
536,SF - Rincon Hill,467,58151,37.786,-122.391,873.1,0,0
550,Yerba Buena Island,468,58163,37.807,-122.361,659.81,0,0
141,APEEL 3E Hayward CSUH,469,58219,37.657,-122.061,517.06,0,0
535,SF - Presidio,470,58222,37.792,-122.457,594.47,0,0
302,SF Intern. Airport,471,58223,37.622,-122.398,190.14,0,0
524,Oakland - Title & Trust,472,58224,37.806,-122.267,306.3,0,0
541,Saratoga - W Valley Coll.,473,58235,37.262,-122.009,347.9,0,0
305,Saratoga - WVC E Wall,474,58235,37.262,-122.009,347.9,0,0
306,Saratoga - WVC NE Corner,475,58235,37.262,-122.009,347.9,0,0
307,Saratoga - WVC SE Corner,476,58235,37.262,-122.009,347.9,0,0
502,Belmont - Envirotech,478,58262,37.512,-122.308,627.59,0,0
526,Palo Alto - 1900 Embarc.,479,58264,37.453,-122.112,209.87,0,0
528,Piedmont Jr High School Grounds,480,58338,37.821,-122.234,895.36,0,0
488,APEEL 10 - Skyline,481,58373,37.465,-122.342,391.91,0,0
296,Foster City - APEEL 1,482,58375,37.545,-122.231,116.35,0,0
291,APEEL 1E - Hayward,483,58376,37.623,-122.13,219.8,0,0
491,APEEL 7 - Pulgas,484,58378,37.484,-122.313,415.27,0,0
490,APEEL 2E Hayward Muir Sch,485,58393,37.657,-122.082,271.06,0,0
504,Berkeley LBL,486,58471,37.876,-122.249,623.52,0,0
514,Hayward - BART Sta,487,58498,37.67,-122.086,337.88,0,0
530,Richmond City Hall,488,58505,37.935,-122.342,259.9,0,0
542,So. San Francisco Sierra Pt.,489,58539,37.675,-122.388,1020.62,0,0
672,Woodfords,490,65398,38.771,-119.815,392.97,0,0
142,Antioch - 510 G St,491,67070,38.015,-121.81,304.68,0,0
453,Pasadena - Brown Gym,492,80046,34.14,-118.12,341.14,160,1460
455,Pasadena - CIT Calif Blvd,493,80047,34.14,-118.12,341.14,160,1460
459,Pasadena - CIT Lura St,494,80048,34.14,-118.12,341.14,160,1460
457,Pasadena - CIT Keck Lab,495,80049,34.14,-118.12,341.14,160,1460
460,Pasadena - CIT Mudd Lab,496,80050,34.14,-118.12,341.14,160,1460
456,Pasadena - CIT Indust. Rel,497,80051,34.14,-118.12,341.14,160,1460
454,Pasadena - CIT Bridge Lab,498,80052,34.14,-118.12,341.14,160,1460
6,Pasadena - CIT Athenaeum,499,80053,34.139,-118.121,415.13,160,1480
458,Pasadena - CIT Kresge Lab,500,80054,34.149,-118.171,969.07,20,660
61,Cape Mendocino,501,89005,40.348,-124.352,567.78,0,0
563,Petrolia,502,89156,40.324,-124.286,422.17,0,0
176,Rio Dell Overpass - FF,503,89324,40.503,-124.099,311.75,0,0
177,Rio Dell Overpass E Ground,504,89324,40.503,-124.099,311.75,0,0
178,Rio Dell Overpass W Ground,505,89324,40.503,-124.099,311.75,0,0
562,Fortuna - Fortuna Blvd,506,89486,40.584,-124.145,457.06,0,0
561,Eureka - Myrtle & West,507,89509,40.802,-124.148,337.46,0,0
564,Shelter Cove Airport,508,89530,40.026,-124.069,518.98,0,0
628,LA 00,509,-999,34.106,-118.454,706.22,320,320
475,Sylmar - Sayre St,510,90001,34.306,-118.437,348.87,100,3580
400,Fountain Valley - Euclid,511,90002,33.719,-117.937,270.54,540,4520
446,Northridge - 17645 Saticoy St,512,90003,34.209,-118.517,280.86,340,2780
572,Chatsworth - Devonshire,513,90004,34.358,-118.571,409.4,320,2740
451,Pacoima Kagel Canyon USC,514,90005,34.25,-118.42,323.76,360,2400
471,Sun Valley - Roscoe Blvd,515,90006,34.221,-118.421,320.93,360,2200
452,Panorama City - Roscoe,516,90007,34.222,-118.442,318.16,360,1860
472,Sun Valley - Sunland,517,90008,34.235,-118.366,393.67,400,1500
443,N Hollywood - Coldwater Can,518,90009,34.194,-118.412,326.47,340,2080
470,Studio City - Ventura & Coldwater Cyn Av,519,90010,34.146,-118.412,400.44,220,1000
642,Montebello - Bluff Rd.,520,90011,33.99,-118.114,316.01,600,3400
386,Burbank - N Buena Vista,521,90012,34.168,-118.331,320.57,300,1000
381,Beverly Hills - 14145 Mulhol,522,90013,34.132,-118.439,355.81,40,1020
380,Beverly Hills - 12520 Mulhol,523,90014,34.127,-118.405,545.66,100,320
412,LA - Chalon Rd,524,90015,34.086,-118.481,740.05,80,320
416,LA - N Faring Rd,525,90016,34.089,-118.435,255,320,320
423,LA - Wonderland Ave,526,90017,34.114,-118.38,1222.52,20,320
617,Hollywood - Willoughby Ave,527,90018,34.088,-118.365,347.7,20,1700
466,San Gabriel - E Grand Ave,528,90019,34.091,-118.093,401.37,220,2020
577,LA - W 15th St,529,90020,34.045,-118.298,329.52,320,2180
418,LA - N Westmoreland,530,90021,34.082,-118.298,315.06,320,1920
420,LA - S Grand Ave,531,90022,34.005,-118.279,285.28,720,4920
422,LA - W 70th St,532,90023,33.976,-118.289,241.41,840,5300
414,LA - E Vernon Ave,533,90025,34.004,-118.23,283.14,660,4620
417,LA - N Figueroa St,534,90032,34.111,-118.189,364.91,320,1480
413,LA - Cypress Ave,535,90033,34.088,-118.222,366.71,320,1940
415,LA - Fletcher Dr,536,90034,34.115,-118.244,329.06,260,1120
478,Torrance - W 226th St,537,90038,33.822,-118.356,289.04,680,2200
390,Carson - Catskill Ave,538,90040,33.812,-118.27,305.14,740,3320
464,Rancho Palos Verdes - Luconia,539,90044,33.74,-118.335,508.83,0,1580
433,Lawndale - Osage Ave,540,90045,33.897,-118.346,311.86,660,2660
439,Manhattan Beach - Manhattan,541,90046,33.886,-118.389,351.57,840,2440
462,Playa Del Rey - Saran,542,90047,33.96,-118.432,345.72,700,2180
469,Santa Monica - Second St,543,90048,34.005,-118.485,385.87,580,2360
449,Pacific Palisades - Sunset,544,90049,34.042,-118.554,191.06,160,380
436,Malibu - Las Flores Canyon,545,90050,34.045,-118.638,578.11,0,0
438,Malibu - W Pacific Cst Hwy,546,90051,34.024,-118.788,436.53,0,0
387,Calabasas - N Las Virg,547,90052,34.15,-118.696,403.72,100,2460
388,Canoga Park - Topanga Can,548,90053,34.212,-118.606,267.49,380,2540
409,LA - Centinela St,549,90054,34.001,-118.431,321.91,580,2680
664,Simi Valley - Katherine Rd,550,90055,34.264,-118.666,557.42,320,320
445,Newhall - W Pico Canyon Rd.,551,90056,34.391,-118.622,285.93,320,3680
389,Canyon Country - W Lost Cany,552,90057,34.419,-118.426,325.6,160,1760
473,Sunland - Mt Gleason Ave,553,90058,34.269,-118.303,402.16,100,1220
613,Burbank - Howard Rd.,554,90059,34.204,-118.302,581.93,20,320
428,La Crescenta - New York,555,90060,34.238,-118.254,411.55,100,320
382,Big Tujunga Angeles Nat F,556,90061,34.286,-118.225,550.11,40,320
440,Mill Creek Angeles Nat For,557,90062,34.39,-118.08,569.84,0,660
402,Glendale - Las Palmas,558,90063,34.2,-118.231,371.07,100,320
403,Glendora - N Oakbank,559,90065,34.137,-117.883,362.31,220,1440
398,El Monte - Fairview Av,560,90066,34.093,-118.019,290.63,380,3040
574,Duarte - Mel Canyon Rd.,561,90067,34.15,-117.939,459.14,20,1460
394,Covina - S Grand Ave,562,90068,34.078,-117.871,346.62,160,1620
378,Baldwin Park - N Holly,563,90069,34.1,-117.974,544.68,380,2840
395,Covina - W Badillo,564,90070,34.087,-117.915,324.79,220,2440
481,West Covina - S Orange Ave,565,90071,34.064,-117.952,334.69,340,3060
430,La Puente - Rimgrove Av,566,90072,34.026,-117.918,339.52,220,2340
404,Hacienda Heights - Colima,567,90073,33.99,-117.943,337,320,1980
429,La Habra - Briarcliff,568,90074,33.921,-117.973,338.27,560,2940
670,Whittier - S. Alta Dr,569,90075,34.015,-118.029,511.83,320,2100
468,Santa Fe Springs - E.Joslin,570,90077,33.944,-118.087,339.06,620,3580
393,Compton - Castlegate St,571,90078,33.899,-118.196,266.9,840,5120
396,Downey - Birchdale,572,90079,33.92,-118.137,245.06,840,5000
425,LB - Orange Ave,573,90080,33.881,-118.176,344.72,820,4920
391,Carson - Water St,574,90081,33.836,-118.24,160.58,640,3100
477,Terminal Island - S Seaside,575,90082,33.736,-118.269,260.6,780,2080
576,Huntington Bch - Waikiki,576,90083,33.727,-118.044,270.54,580,3160
431,Lakewood - Del Amo Blvd,577,90084,33.846,-118.099,267.35,820,4800
615,Garden Grove - Santa Rita,578,90085,33.79,-118.012,301.11,760,4660
571,Buena Park - La Palma,579,90086,33.847,-118.018,270.96,760,4440
383,Brea - S Flower Av,580,90087,33.916,-117.896,322.75,520,3880
375,Anaheim - W Ball Rd,581,90088,33.817,-117.951,269.29,620,4120
581,Tustin - E Sycamore,582,90089,33.7278,-117.824,303.09,320,1900
480,Villa Park - Serrano Ave,583,90090,33.821,-117.818,416.93,320,2080
421,LA - Saturn St,584,90091,34.046,-118.355,308.71,500,2900
376,Arcadia - Campus Dr,585,90093,34.13,-118.036,367.53,220,2020
379,Bell Gardens - Jaboneria,586,90094,33.965,-118.158,267.13,780,4900
649,Pasadena - N Sierra Madre,587,90095,34.168,-118.078,397.27,180,1440
461,Pasadena - Old House Rd,588,90095,34.168,-118.078,397.27,180,1440
623,LA - S. Vermont Ave,589,90096,34.021,-118.287,301.93,560,3960
567,Arcadia - Arcadia Av,590,90099,34.127,-118.059,330.5,200,1840
673,Abeno,591,-999,34.636,135.519,256,-999,-999
714,Afyon Bay,592,-999,38.792,30.561,225.6,-999,-999
493,Alameda Naval Air Stn Hanger,593,-999,37.785,-122.303,190,0,0
175,Almiros,594,-999,39.181,22.756,412.68,-999,-999
745,ALS,595,-999,23.5103,120.805,553.43,-999,-999
674,Amagasaki,596,-999,34.718,135.408,256,-999,-999
715,Ambarli,597,-999,40.9805,28.692,175,-999,-999
279,ANL-767 Reactor Plant (Bsmt),598,-999,43.59,-112.66,445.66,-999,-999
280,ANL-768 Power Plant (Bsmt),599,-999,43.59,-112.66,445.66,-999,-999
716,Arcelik,600,-999,40.8236,29.3607,523,-999,-999
179,Arienzo,601,-999,41.028,14.467,612.78,-999,-999
1165,Aslan R.,602,-999,40.7569,29.3673,336.98,-999,-999
717,Atakoy,603,-999,40.989,28.849,310.01,-999,-999
309,Atina,604,-999,41.622,13.8,585.04,-999,-999
180,Auletta,605,-999,40.56,15.558,476.62,-999,-999
718,Aydin,606,-999,37.837,27.838,310.9,-999,-999
181,Bagnoli Irpinio,607,-999,40.821,15.069,649.67,-999,-999
704,Balikesir,608,-999,39.65,27.857,468.44,-999,-999
103,Bevagna,609,-999,42.933,12.617,401.34,-999,-999
182,Bisaccia,610,-999,41.013,15.375,496.46,-999,-999
1166,Bolu,611,-999,40.745,31.61,293.57,-999,-999
287,BOR,612,-999,44.164,-113.87,468.44,-999,-999
719,Bornova,613,-999,38.455,27.229,306.37,-999,-999
720,Botas,614,-999,40.9927,27.979,341.56,-999,-999
183,Bovino,615,-999,41.251,15.51,356.39,-999,-999
184,Brienza,616,-999,40.458,15.635,561.04,-999,-999
705,Burdur,617,-999,37.723,30.294,468.44,-999,-999
706,Bursa,618,-999,40.17,29.08,490.65,-999,-999
721,Bursa Sivil,619,-999,40.183,29.131,612.78,-999,-999
722,Bursa Tofas,620,-999,40.2605,29.068,289.69,-999,-999
185,Calitri,621,-999,40.917,15.439,455.93,-999,-999
723,Canakkale,622,-999,40.142,26.4,289.69,-999,-999
707,Cardak,623,-999,37.825,29.668,428.57,-999,-999
104,Cascia,624,-999,42.721,13.011,585.04,-999,-999
724,Cekmece,625,-999,41.0238,28.7594,346,-999,-999
288,CEM,626,-999,44.065,-113.91,471.53,-999,-999
675,Chihaya,627,-999,34.439,135.659,609,-999,-999
746,CHK,628,-999,23.0992,121.365,424.57,-999,-999
700,Chromio Anapsiktirio,629,-999,40.13,21.73,520.19,-999,-999
747,CHY002,630,-999,23.7192,120.412,235.13,-999,-999
748,CHY004,631,-999,23.6013,120.172,271.3,-999,-999
749,CHY006,632,-999,23.5815,120.552,438.19,-999,-999
750,CHY008,633,-999,23.4853,120.269,210.73,-999,-999
751,CHY010,634,-999,23.4653,120.544,538.69,-999,-999
752,CHY012,635,-999,23.3328,120.152,198.4,-999,-999
753,CHY014,636,-999,23.2963,120.583,347.63,-999,-999
754,CHY015,637,-999,23.355,120.405,228.66,-999,-999
755,CHY016,638,-999,23.2212,120.153,200.86,-999,-999
756,CHY017,639,-999,23.2147,120.268,190.57,-999,-999
757,CHY019,640,-999,23.1795,120.478,497.53,-999,-999
758,CHY022,641,-999,23.0457,120.462,564.07,-999,-999
759,CHY023,642,-999,22.9655,120.28,279.78,-999,-999
760,CHY024,643,-999,23.757,120.606,427.73,-999,-999
761,CHY025,644,-999,23.7795,120.514,277.5,-999,-999
762,CHY026,645,-999,23.7987,120.411,226.01,-999,-999
763,CHY027,646,-999,23.752,120.247,210.01,-999,-999
764,CHY028,647,-999,23.632,120.605,542.61,-999,-999
765,CHY029,648,-999,23.6135,120.528,544.74,-999,-999
766,CHY032,649,-999,23.5799,120.291,192.71,-999,-999
767,CHY033,650,-999,23.5407,120.215,197.63,-999,-999
768,CHY034,651,-999,23.5212,120.544,378.75,-999,-999
769,CHY035,652,-999,23.52,120.584,573.04,-999,-999
770,CHY036,653,-999,23.6073,120.479,233.14,-999,-999
771,CHY039,654,-999,23.5207,120.344,201.21,-999,-999
772,CHY041,655,-999,23.4388,120.596,492.26,-999,-999
773,CHY042,656,-999,23.3583,120.583,665.2,-999,-999
774,CHY044,657,-999,23.3832,120.163,194.47,-999,-999
775,CHY046,658,-999,23.4765,120.463,442.15,-999,-999
776,CHY047,659,-999,23.4938,120.447,169.52,-999,-999
777,CHY050,660,-999,23.2803,120.408,538.93,-999,-999
778,CHY052,661,-999,23.2878,120.501,573.04,-999,-999
779,CHY054,662,-999,23.3077,120.31,172.1,-999,-999
780,CHY055,663,-999,23.2698,120.271,225.77,-999,-999
781,CHY057,664,-999,23.1495,120.41,411.46,-999,-999
782,CHY058,665,-999,23.1725,120.319,269.28,-999,-999
783,CHY059,666,-999,23.184,120.103,191.09,-999,-999
784,CHY060,667,-999,23.1243,120.239,228.92,-999,-999
785,CHY061,668,-999,23.0768,120.511,538.69,-999,-999
786,CHY062,669,-999,23.1213,120.45,602.63,-999,-999
787,CHY063,670,-999,23.027,120.34,246.88,-999,-999
788,CHY065,671,-999,22.906,120.345,250,-999,-999
789,CHY066,672,-999,22.9205,120.208,211.97,-999,-999
790,CHY067,673,-999,22.999,120.184,227.97,-999,-999
791,CHY069,674,-999,22.9737,120.182,224.42,-999,-999
792,CHY070,675,-999,22.971,120.229,265.45,-999,-999
793,CHY071,676,-999,23.0648,120.164,202.95,-999,-999
794,CHY074,677,-999,23.5103,120.805,553.43,-999,-999
795,CHY076,678,-999,23.638,120.222,169.84,-999,-999
796,CHY078,679,-999,23.0402,120.228,160.67,-999,-999
797,CHY079,680,-999,23.1848,120.528,573.04,-999,-999
798,CHY080,681,-999,23.5972,120.678,496.21,-999,-999
799,CHY081,682,-999,23.267,120.488,573.04,-999,-999
800,CHY082,683,-999,23.7237,120.298,193.69,-999,-999
801,CHY086,684,-999,23.351,120.593,665.2,-999,-999
802,CHY087,685,-999,23.3845,120.519,505.2,-999,-999
803,CHY088,686,-999,23.3462,120.429,318.52,-999,-999
804,CHY090,687,-999,23.2673,120.216,180.33,-999,-999
805,CHY092,688,-999,23.7913,120.478,253.72,-999,-999
806,CHY093,689,-999,23.6538,120.147,190.49,-999,-999
807,CHY094,690,-999,23.7935,120.321,221.92,-999,-999
808,CHY096,691,-999,22.983,120.233,293.61,-999,-999
809,CHY099,692,-999,23.1373,120.28,228.84,-999,-999
810,CHY100,693,-999,23.2272,120.342,230.11,-999,-999
811,CHY101,694,-999,23.6862,120.562,258.89,-999,-999
812,CHY102,695,-999,23.2455,120.614,804.36,-999,-999
813,CHY104,696,-999,23.6695,120.465,223.24,-999,-999
814,CHY107,697,-999,23.2988,120.29,175.68,-999,-999
815,CHY109,698,-999,23.2517,120.53,573.04,-999,-999
816,CHY110,699,-999,23.2517,120.53,573.04,-999,-999
817,CHY116,700,-999,23.0775,120.108,195.38,-999,-999
191,Conza - Vetta,701,-999,40.875,15.327,412.23,-999,-999
199,Corinth,702,-999,37.94,22.9,361.4,-999,-999
281,CPP-601,703,-999,43.5731,-112.934,279.97,-999,-999
282,CPP-610,704,-999,43.567,-112.934,279.97,-999,-999
708,Denizli,705,-999,37.813,29.114,377.56,-999,-999
709,Dinar,706,-999,38.06,30.155,219.75,-999,-999
318,Drama,707,DRA1,41.1441,24.1477,324.55,-999,-999
94,Dursunbey,708,-999,39.61,28.625,585.04,-999,-999
725,Duzce,709,-999,40.844,31.149,281.86,-999,-999
314,Edessa (bsmt),710,-999,40.805,22.051,551.3,-999,-999
565,Edgecumbe Substation Electric,711,930A,-37.99,176.829,259.86,-999,-999
712,Eilat,712,-999,29.563,34.938,354.88,-999,-999
818,ENA,713,-999,24.428,121.741,665.2,-999,-999
726,Eregli,714,-999,40.98,27.79,585.09,-999,-999
819,ESL,715,-999,23.8137,121.433,493.29,-999,-999
727,Fatih,716,-999,41.0537,28.95,386.75,-999,-999
695,Florina,717,-999,40.787,21.404,649.67,-999,-999
676,FUK,718,-999,36.0533,136.227,256,-999,-999
677,Fukushima,719,-999,34.687,135.474,256,-999,-999
1167,Galata Kop.,720,-999,41.02,28.98,329.45,-999,-999
310,Garigliano-Centrale Nucleare,721,-999,41.258,13.833,266.41,-999,-999
728,Gebze,722,-999,40.82,29.44,792,-999,-999
363,Geotech Investig Center,723,-999,13.7,-89.175,489.34,-999,-999
729,Goynuk,724,-999,40.396,30.783,347.62,-999,-999
701,Grevena,725,-999,40.8,21.42,520.19,-999,-999
702,Grevena Posokemio,726,-999,40.085,21.426,503.83,-999,-999
558,GSH,727,-999,50.737,6.377,445.66,-999,-999
713,Hadera,728,-999,32.469,34.893,276.92,-999,-999
289,HAU,729,-999,43.894,-113.661,612.78,-999,-999
730,Hava Alani,730,-999,40.9824,28.82,354.37,-999,-999
820,HEN,731,-999,22.0055,120.738,204.23,-999,-999
678,HIK,732,-999,35.2733,136.247,256,-999,-999
821,HSN,733,-999,24.8022,120.969,321.49,-999,-999
822,HWA,734,-999,23.977,121.605,260.38,-999,-999
823,HWA002,735,-999,23.6012,121.512,789.18,-999,-999
824,HWA003,736,-999,23.4768,121.497,1525.85,-999,-999
825,HWA005,737,-999,23.6608,121.414,459.32,-999,-999
826,HWA006,738,-999,23.6732,121.417,559.11,-999,-999
827,HWA007,739,-999,23.9877,121.617,358.72,-999,-999
828,HWA009,740,-999,23.9925,121.617,373.23,-999,-999
829,HWA011,741,-999,23.9962,121.586,355.76,-999,-999
830,HWA012,742,-999,23.993,121.623,414.42,-999,-999
831,HWA013,743,-999,23.978,121.591,330.55,-999,-999
832,HWA014,744,-999,23.9732,121.599,277.28,-999,-999
833,HWA015,745,-999,23.9757,121.553,453.05,-999,-999
834,HWA016,746,-999,23.9648,121.56,576.55,-999,-999
835,HWA017,747,-999,23.9497,121.539,578.11,-999,-999
836,HWA019,748,-999,23.977,121.605,494.82,-999,-999
837,HWA020,749,-999,23.8137,121.433,626.43,-999,-999
838,HWA022,750,-999,24.2675,121.732,567.64,-999,-999
839,HWA023,751,-999,24.08,121.595,671.52,-999,-999
840,HWA024,752,-999,23.3522,121.297,671.52,-999,-999
841,HWA025,753,-999,24.163,121.645,494.32,-999,-999
842,HWA026,754,-999,24.1185,121.617,457.49,-999,-999
843,HWA027,755,-999,24.055,121.591,437.8,-999,-999
844,HWA028,756,-999,24.0172,121.601,406.7,-999,-999
845,HWA029,757,-999,23.9373,121.57,614.05,-999,-999
846,HWA030,758,-999,23.7852,121.449,592.18,-999,-999
847,HWA031,759,-999,23.7653,121.492,602.29,-999,-999
848,HWA032,760,-999,23.7108,121.412,573.04,-999,-999
849,HWA033,761,-999,23.6867,121.475,395.57,-999,-999
850,HWA034,762,-999,23.5905,121.377,379.18,-999,-999
851,HWA035,763,-999,23.732,121.436,677.49,-999,-999
852,HWA036,764,-999,23.4995,121.367,503.04,-999,-999
853,HWA037,765,-999,23.4542,121.384,469.64,-999,-999
854,HWA038,766,-999,23.4615,121.344,642.73,-999,-999
855,HWA039,767,-999,23.3845,121.352,459.67,-999,-999
856,HWA041,768,-999,23.2675,121.294,484.97,-999,-999
857,HWA043,769,-999,23.7092,121.54,543.06,-999,-999
858,HWA044,770,-999,23.6538,121.527,534.41,-999,-999
859,HWA045,771,-999,24.3095,121.741,484.45,-999,-999
860,HWA046,772,-999,24.1492,121.621,617.52,-999,-999
861,HWA048,773,-999,24.0113,121.572,345.89,-999,-999
862,HWA049,774,-999,23.9952,121.558,508.61,-999,-999
863,HWA050,775,-999,23.9897,121.584,313.9,-999,-999
864,HWA051,776,-999,23.8703,121.548,440.5,-999,-999
865,HWA053,777,-999,23.4072,121.312,843.24,-999,-999
866,HWA054,778,-999,23.4317,121.34,452.83,-999,-999
867,HWA055,779,-999,23.3232,121.332,369.75,-999,-999
868,HWA056,780,-999,24.1795,121.508,511.3,-999,-999
869,HWA057,781,-999,24.16,121.61,671.52,-999,-999
870,HWA058,782,-999,23.9672,121.484,529.54,-999,-999
871,HWA059,783,-999,23.8713,121.501,208.56,-999,-999
872,HWA060,784,-999,23.8703,121.59,573.04,-999,-999
873,HWA2,785,-999,23.977,121.605,260.38,-999,-999
273,Ierissos,786,-999,40.4,23.88,463.92,-999,-999
874,ILA001,787,-999,24.8827,121.836,909.09,-999,-999
875,ILA002,788,-999,24.845,121.797,219.78,-999,-999
876,ILA003,789,-999,24.7982,121.781,263.82,-999,-999
877,ILA004,790,-999,24.745,121.783,124.27,-999,-999
878,ILA005,791,-999,24.6978,121.805,239.33,-999,-999
879,ILA006,792,-999,24.6412,121.825,279.41,-999,-999
880,ILA007,793,-999,24.5943,121.846,496.27,-999,-999
881,ILA008,794,-999,24.7088,121.763,299.28,-999,-999
882,ILA010,795,-999,24.619,121.781,573.04,-999,-999
883,ILA012,796,-999,24.7807,121.733,259.21,-999,-999
884,ILA013,797,-999,24.732,121.729,199.48,-999,-999
885,ILA014,798,-999,24.6945,121.72,300.77,-999,-999
886,ILA015,799,-999,24.7807,121.691,782.59,-999,-999
887,ILA016,800,-999,24.749,121.684,271.1,-999,-999
888,ILA021,801,-999,24.7135,121.644,573.04,-999,-999
889,ILA024,802,-999,24.6448,121.588,671.52,-999,-999
890,ILA027,803,-999,24.6893,121.76,215,-999,-999
891,ILA030,804,-999,24.7278,121.755,200.98,-999,-999
892,ILA031,805,-999,24.5995,121.834,649.25,-999,-999
893,ILA032,806,-999,24.6242,121.827,295.48,-999,-999
894,ILA035,807,-999,24.8241,121.76,293.01,-999,-999
895,ILA036,808,-999,24.7883,121.751,181,-999,-999
896,ILA037,809,-999,24.7455,121.714,210.17,-999,-999
897,ILA039,810,-999,24.765,121.721,227.18,-999,-999
898,ILA041,811,-999,24.7233,121.792,196.88,-999,-999
899,ILA042,812,-999,24.6903,121.792,209.36,-999,-999
900,ILA043,813,-999,24.629,121.735,573.04,-999,-999
901,ILA044,814,-999,24.656,121.755,158.13,-999,-999
902,ILA046,815,-999,24.666,121.734,396.93,-999,-999
903,ILA048,816,-999,24.7663,121.761,199.59,-999,-999
904,ILA049,817,-999,24.7655,121.748,190,-999,-999
905,ILA050,818,-999,24.428,121.741,621.06,-999,-999
906,ILA051,819,-999,24.7212,121.667,520.64,-999,-999
907,ILA052,820,-999,24.6092,121.849,612.47,-999,-999
908,ILA054,821,-999,24.9732,121.918,677.3,-999,-999
909,ILA055,822,-999,24.7387,121.808,266.77,-999,-999
910,ILA056,823,-999,24.7622,121.809,223.71,-999,-999
911,ILA059,824,-999,24.6667,121.821,236.84,-999,-999
912,ILA061,825,-999,24.5233,121.825,497.73,-999,-999
913,ILA062,826,-999,24.4677,121.793,447.51,-999,-999
914,ILA063,827,-999,24.6157,121.518,996.51,-999,-999
915,ILA064,828,-999,24.477,121.779,488.61,-999,-999
916,ILA066,829,-999,24.4473,121.771,481.17,-999,-999
917,ILA067,830,-999,24.44,121.373,665.2,-999,-999
311,Isernia-Sant'Agapito,831,-999,41.55,14.232,460.31,-999,-999
731,Istanbul,832,-999,41.058,29.013,595.2,-999,-999
85,Izmir,833,-999,38.4,27.167,535.24,-999,-999
710,Izmir Trigger #1,834,-999,38.4,27.19,585.04,-999,-999
711,Izmir Trigger #2,835,-999,38.4,27.19,585.04,-999,-999
732,Izmit,836,-999,40.79,29.96,811,-999,-999
733,Iznik,837,-999,40.44,29.75,476.62,-999,-999
680,Kakogawa,838,-999,34.764,134.843,312,-999,-999
359,Kalamata (bsmt),839,-999,37.03,22.12,382.21,-999,-999
360,Kalamata (bsmt) (1st trigger),840,-999,37.03,22.12,382.21,-999,-999
361,Kalamata (bsmt) (2nd trigger),841,-999,37.03,22.12,382.21,-999,-999
696,Kardista,842,-999,39.37,21.92,300.56,-999,-999
703,Karpero,843,-999,39.95,21.61,511.16,-999,-999
697,Kastoria,844,-999,40.52,21.27,579.4,-999,-999
918,KAU001,845,-999,23.1618,120.635,573.04,-999,-999
919,KAU003,846,-999,22.628,120.257,913.77,-999,-999
920,KAU006,847,-999,22.591,120.317,218.49,-999,-999
921,KAU007,848,-999,22.6462,120.358,290.86,-999,-999
922,KAU008,849,-999,22.6295,120.367,285.94,-999,-999
923,KAU010,850,-999,22.7873,120.279,215.36,-999,-999
924,KAU011,851,-999,22.7613,120.256,155.32,-999,-999
925,KAU012,852,-999,22.8797,120.371,516.18,-999,-999
926,KAU015,853,-999,22.656,120.332,233.21,-999,-999
927,KAU018,854,-999,22.891,120.474,538.69,-999,-999
928,KAU020,855,-999,22.902,120.535,373.33,-999,-999
929,KAU022,856,-999,22.6707,120.491,217.05,-999,-999
930,KAU030,857,-999,22.6108,120.559,259.36,-999,-999
931,KAU032,858,-999,22.5462,120.453,194.13,-999,-999
932,KAU033,859,-999,22.4643,120.453,182.93,-999,-999
933,KAU034,860,-999,22.529,120.619,1010.4,-999,-999
934,KAU037,861,-999,22.2617,120.643,283.21,-999,-999
935,KAU038,862,-999,22.1922,120.685,667.59,-999,-999
936,KAU039,863,-999,22.0982,120.742,464.82,-999,-999
937,KAU040,864,-999,22.1905,120.87,567.64,-999,-999
938,KAU042,865,-999,22.0225,120.829,806.48,-999,-999
939,KAU043,866,-999,21.9137,120.84,538.49,-999,-999
940,KAU044,867,-999,22.4397,120.503,221.24,-999,-999
941,KAU046,868,-999,22.0055,120.738,204.23,-999,-999
942,KAU047,869,-999,23.0817,120.583,573.04,-999,-999
943,KAU048,870,-999,22.7252,120.491,295.66,-999,-999
944,KAU050,871,-999,23.1625,120.757,665.2,-999,-999
945,KAU051,872,-999,22.372,120.62,1004.58,-999,-999
946,KAU052,873,-999,21.9433,120.805,573.04,-999,-999
947,KAU054,874,-999,23.2777,120.713,497.22,-999,-999
948,KAU057,875,-999,22.6342,120.263,535.13,-999,-999
949,KAU058,876,-999,22.6495,120.32,229.66,-999,-999
950,KAU062,877,-999,22.6237,120.284,246.84,-999,-999
951,KAU063,878,-999,22.9053,120.173,227.24,-999,-999
952,KAU064,879,-999,22.7852,120.239,244.84,-999,-999
953,KAU066,880,-999,22.7303,120.341,214.97,-999,-999
954,KAU069,881,-999,22.8873,120.657,500.15,-999,-999
955,KAU073,882,-999,22.5348,120.536,216.33,-999,-999
956,KAU074,883,-999,22.574,120.566,228.34,-999,-999
957,KAU075,884,-999,22.4903,120.499,196.3,-999,-999
958,KAU077,885,-999,22.747,120.723,665.2,-999,-999
959,KAU078,886,-999,22.7112,120.641,531.85,-999,-999
960,KAU081,887,-999,22.0095,120.737,295,-999,-999
961,KAU082,888,-999,21.9428,120.724,573.04,-999,-999
962,KAU083,889,-999,22.5673,120.448,202.14,-999,-999
963,KAU085,890,-999,22.8858,120.322,260.75,-999,-999
964,KAU086,891,-999,22.795,120.295,216.8,-999,-999
965,KAU087,892,-999,22.6128,120.311,276.11,-999,-999
966,KAU088,893,-999,22.6461,120.306,227.46,-999,-999
319,Kavala,894,-999,40.93,24.4,535.24,-999,-999
551,Kilkis,895,-999,40.99,22.869,454.56,-999,-999
679,KJMA,896,-999,34.6833,135.18,312,-999,-999
681,Kobe University,897,-999,34.725,135.24,1043,-999,-999
1168,Kocamustafapaba Tomb,898,-999,41.003,28.928,386.75,-999,-999
698,Kozani,899,-999,40.3,21.78,649.67,-999,-999
734,Kutahya,900,-999,39.419,29.997,399.61,-999,-999
699,Larisa,901,-999,39.637,22.417,282.27,-999,-999
735,Manisa,902,-999,38.58,27.45,612.78,-999,-999
371,Maraenui Primary School,903,113A,-37.875,177.585,490.25,-999,-999
736,Maslak,904,-999,41.104,29.019,445.66,-999,-999
372,Matahina Dam,905,-999,-38.115,176.883,551.3,-999,-999
737,Mecidiyekoy,906,-999,41.065,28.997,384.86,-999,-999
186,Mercato San Severino,907,-999,40.791,14.764,428.57,-999,-999
362,Messinia - Old Townhall,908,MES1,37.0501,22.0106,393.96,-999,-999
683,Morigawachi,909,-999,34.68,135.572,256,-999,-999
1177,Mudurnu,910,-999,40.463,31.182,535.24,-999,-999
682,MZH,911,-999,35.448,135.32,609,-999,-999
364,National Geografical Inst,912,-999,13.714,-89.171,455.93,-999,-999
967,NCU,913,-999,24.97,121.19,466.16,-999,-999
684,Nishi-Akashi,914,-999,34.664,134.964,609,-999,-999
968,NSK,915,-999,24.6755,121.358,665.2,-999,-999
969,NST,916,-999,24.6312,121.001,491.08,-999,-999
970,NSY,917,-999,24.4162,120.761,599.64,-999,-999
685,OKA,918,-999,34.66,133.92,609,-999,-999
559,OLF,919,-999,50.496,6.421,483.02,-999,-999
686,OSAJ,920,-999,34.6783,135.52,256,-999,-999
648,Pardee - SCE,921,-999,34.435,-118.582,325.67,340,5100
283,PBF (second bsmt),922,-999,43.5539,-112.875,375.38,-999,-999
316,Pelekanada,923,-999,37.05,21.85,527.96,-999,-999
971,PNG,924,-999,23.5672,119.555,465.86,-999,-999
312,Pontecorvo,925,-999,41.499,13.683,321.36,-999,-999
687,Port Island (0 m),926,-999,34.67,135.201,198,-999,-999
187,Rionero In Vulture,927,-999,40.929,15.669,574.88,-999,-999
313,Roccamonfina,928,-999,41.288,13.98,475.1,-999,-999
688,Sakai,929,-999,34.564,135.469,256,-999,-999
738,Sakarya,930,-999,40.737,30.384,411.91,-999,-999
972,SGL,931,-999,22.7252,120.491,295.66,-999,-999
689,Shin-Osaka,932,-999,34.69,135.5,256,-999,-999
105,Spoleto,933,-999,42.734,12.741,535.24,-999,-999
973,SSD,934,-999,22.746,120.632,535.13,-999,-999
188,Sturno (STN),935,-999,41.0184,15.1117,382,-999,-999
974,STY,936,-999,23.1625,120.757,665.2,-999,-999
691,Tadoka,937,-999,34.48,135.408,312,-999,-999
975,TAI1,938,-999,23.0402,120.228,160.67,-999,-999
692,Takarazuka,939,-999,34.809,135.344,312,-999,-999
693,Takatori,940,-999,34.649,135.139,256,-999,-999
284,TAN-719,941,-999,43.857,-112.725,279.97,-999,-999
976,TAP,942,-999,25.0392,121.507,235.82,-999,-999
977,TAP003,943,-999,25.0863,121.45,212.39,-999,-999
978,TAP005,944,-999,25.1077,121.507,179.84,-999,-999
979,TAP006,945,-999,25.0947,121.509,184.77,-999,-999
980,TAP007,946,-999,25.0758,121.508,207.39,-999,-999
981,TAP008,947,-999,25.0758,121.527,194.14,-999,-999
982,TAP010,948,-999,25.063,121.481,226.38,-999,-999
983,TAP012,949,-999,25.0563,121.508,207.99,-999,-999
984,TAP013,950,-999,25.0572,121.525,205.11,-999,-999
985,TAP014,951,-999,25.0578,121.544,188.98,-999,-999
986,TAP017,952,-999,25.0528,121.448,217.83,-999,-999
987,TAP020,953,-999,25.0388,121.526,218.5,-999,-999
988,TAP021,954,-999,25.0378,121.543,167.18,-999,-999
989,TAP024,955,-999,25.0203,121.465,194.98,-999,-999
990,TAP026,956,-999,25.017,121.503,194.28,-999,-999
991,TAP028,957,-999,25.0045,121.507,287.94,-999,-999
992,TAP032,958,-999,25.0007,121.475,308.88,-999,-999
993,TAP034,959,-999,24.955,121.53,538.69,-999,-999
994,TAP035,960,-999,24.9239,121.535,438.13,-999,-999
995,TAP036,961,-999,24.9043,121.545,671.52,-999,-999
996,TAP041,962,-999,25.183,121.417,363.56,-999,-999
997,TAP042,963,-999,25.1255,121.453,375.85,-999,-999
998,TAP043,964,-999,24.9913,121.41,388.16,-999,-999
999,TAP046,965,-999,25.1037,121.768,816.9,-999,-999
1000,TAP047,966,-999,24.9538,121.338,403.2,-999,-999
1001,TAP049,967,-999,25.148,121.437,573.04,-999,-999
1002,TAP051,968,-999,25.1008,121.44,403.17,-999,-999
1003,TAP052,969,-999,25.0817,121.383,433.88,-999,-999
1004,TAP053,970,-999,24.959,121.514,538.69,-999,-999
1005,TAP059,971,-999,25.1565,121.686,456.18,-999,-999
1006,TAP060,972,-999,25.1572,121.724,631.27,-999,-999
1007,TAP065,973,-999,25.1488,121.767,1023.45,-999,-999
1008,TAP066,974,-999,25.1865,121.52,662.78,-999,-999
1009,TAP067,975,-999,24.9802,121.58,807.68,-999,-999
1010,TAP069,976,-999,25.0082,121.988,671.52,-999,-999
1011,TAP072,977,-999,24.9913,121.65,671.52,-999,-999
1012,TAP075,978,-999,25.0288,121.728,856.38,-999,-999
1013,TAP077,979,-999,25.0643,121.844,1022.77,-999,-999
1014,TAP078,980,-999,25.056,121.872,671.52,-999,-999
1015,TAP079,981,-999,25.0237,121.906,631.27,-999,-999
1016,TAP081,982,-999,25.0182,121.981,671.52,-999,-999
1017,TAP083,983,-999,25.2595,121.494,435.22,-999,-999
1018,TAP084,984,-999,25.2252,121.63,224.22,-999,-999
1019,TAP086,985,-999,24.9527,121.568,887.68,-999,-999
1020,TAP087,986,-999,25.1008,121.418,573.04,-999,-999
1021,TAP090,987,-999,25.0573,121.594,324.38,-999,-999
1022,TAP094,988,-999,25.141,121.476,416.34,-999,-999
1023,TAP095,989,-999,25.1353,121.491,206.24,-999,-999
1024,TAP097,990,-999,25.0207,121.53,237.23,-999,-999
1025,TAP098,991,-999,25.103,121.539,538.69,-999,-999
1026,TAP100,992,-999,25.0351,121.519,236.32,-999,-999
1027,TAP103,993,-999,25.071,121.781,429.49,-999,-999
1028,TAW,994,-999,22.3575,120.896,481.92,-999,-999
1029,TCU,995,-999,24.1475,120.676,472.81,-999,-999
1030,TCU003,996,-999,25.0473,121.136,517.33,-999,-999
1031,TCU006,997,-999,24.9118,121.141,607.4,-999,-999
1032,TCU007,998,-999,25.0015,121.31,463.88,-999,-999
1033,TCU008,999,-999,25.0092,121.206,441.58,-999,-999
1034,TCU009,1000,-999,24.9655,121.22,460.1,-999,-999
1035,TCU010,1001,-999,25.0003,121.153,446.15,-999,-999
1036,TCU011,1002,-999,24.8855,121.278,471.07,-999,-999
1037,TCU014,1003,-999,25.0463,121.308,496.47,-999,-999
1038,TCU015,1004,-999,24.7572,120.935,426,-999,-999
1039,TCU017,1005,-999,24.7808,121.007,558.76,-999,-999
1040,TCU018,1006,-999,24.88,121.053,573.04,-999,-999
1041,TCU025,1007,-999,24.7065,121.176,665.2,-999,-999
1042,TCU026,1008,-999,24.7757,121.075,569.98,-999,-999
1043,TCU029,1009,-999,24.5588,120.749,406.53,-999,-999
1044,TCU031,1010,-999,24.5615,120.701,489.22,-999,-999
1045,TCU033,1011,-999,24.6855,120.862,423.4,-999,-999
1046,TCU034,1012,-999,24.639,120.857,393.77,-999,-999
1047,TCU036,1013,-999,24.4488,120.696,478.07,-999,-999
1048,TCU038,1014,-999,24.4912,120.663,297.86,-999,-999
1049,TCU039,1015,-999,24.4917,120.784,540.66,-999,-999
1050,TCU040,1016,-999,24.4497,120.646,362.03,-999,-999
1051,TCU042,1017,-999,24.5542,120.808,578.98,-999,-999
1052,TCU045,1018,-999,24.5412,120.914,704.64,-999,-999
1053,TCU046,1019,-999,24.4683,120.854,465.55,-999,-999
1054,TCU047,1020,-999,24.6188,120.939,520.37,-999,-999
1055,TCU048,1021,-999,24.18,120.594,551.21,-999,-999
1056,TCU049,1022,-999,24.179,120.69,487.27,-999,-999
1057,TCU050,1023,-999,24.1815,120.634,542.41,-999,-999
1058,TCU051,1024,-999,24.1603,120.652,350.06,-999,-999
1059,TCU052,1025,-999,24.198,120.739,579.1,-999,-999
1060,TCU053,1026,-999,24.1935,120.669,454.55,-999,-999
1061,TCU054,1027,-999,24.1612,120.675,460.69,-999,-999
1062,TCU055,1028,-999,24.1392,120.664,359.13,-999,-999
1063,TCU056,1029,-999,24.1588,120.624,403.2,-999,-999
1064,TCU057,1030,-999,24.1732,120.611,555.23,-999,-999
1065,TCU059,1031,-999,24.2687,120.564,272.67,-999,-999
1066,TCU060,1032,-999,24.2247,120.644,375.42,-999,-999
1067,TCU061,1033,-999,24.1355,120.549,379.64,-999,-999
1068,TCU063,1034,-999,24.1083,120.616,476.14,-999,-999
1069,TCU064,1035,-999,24.3457,120.61,645.72,-999,-999
1070,TCU065,1036,-999,24.0588,120.691,305.85,-999,-999
1071,TCU067,1037,-999,24.0912,120.72,433.63,-999,-999
1072,TCU068,1038,-999,24.2772,120.766,487.34,-999,-999
1073,TCU070,1039,-999,24.196,120.54,401.26,-999,-999
1074,TCU071,1040,-999,23.9855,120.788,624.85,-999,-999
1075,TCU072,1041,-999,24.0407,120.849,468.14,-999,-999
1076,TCU074,1042,-999,23.9622,120.962,549.43,-999,-999
1077,TCU075,1043,-999,23.9827,120.678,573.02,-999,-999
1078,TCU076,1044,-999,23.9077,120.676,614.98,-999,-999
1079,TCU078,1045,-999,23.812,120.845,443.04,-999,-999
1080,TCU079,1046,-999,23.8395,120.894,363.99,-999,-999
1081,TCU081,1047,-999,24.8022,120.969,430.47,-999,-999
1082,TCU082,1048,-999,24.1475,120.676,472.81,-999,-999
1083,TCU083,1049,-999,24.97,121.187,354.63,-999,-999
1084,TCU084,1050,-999,23.883,120.9,665.2,-999,-999
1085,TCU085,1051,-999,24.6755,121.358,999.66,-999,-999
1086,TCU087,1052,-999,24.3482,120.773,538.69,-999,-999
1088,TCU089,1053,-999,23.9037,120.856,671.52,-999,-999
1089,TCU092,1054,-999,25.0117,121.279,422.28,-999,-999
1090,TCU094,1055,-999,24.7695,121.049,589.85,-999,-999
1091,TCU095,1056,-999,24.6917,121.013,446.63,-999,-999
1092,TCU096,1057,-999,24.7957,120.956,454.58,-999,-999
1093,TCU098,1058,-999,24.7433,120.899,346.56,-999,-999
1094,TCU100,1059,-999,24.1858,120.615,535.13,-999,-999
1095,TCU101,1060,-999,24.242,120.709,389.41,-999,-999
1096,TCU102,1061,-999,24.2493,120.721,714.27,-999,-999
1097,TCU103,1062,-999,24.3098,120.707,494.1,-999,-999
1098,TCU104,1063,-999,24.2455,120.602,410.45,-999,-999
1099,TCU105,1064,-999,24.239,120.559,575.54,-999,-999
1100,TCU106,1065,-999,24.0833,120.552,451.37,-999,-999
1101,TCU107,1066,-999,24.0727,120.54,409,-999,-999
1102,TCU109,1067,-999,24.0848,120.571,535.13,-999,-999
1103,TCU110,1068,-999,23.9622,120.57,212.72,-999,-999
1104,TCU111,1069,-999,24.1137,120.487,237.53,-999,-999
1105,TCU112,1070,-999,24.0557,120.424,190.54,-999,-999
1106,TCU113,1071,-999,23.8928,120.386,230.3,-999,-999
1107,TCU115,1072,-999,23.9595,120.469,215.34,-999,-999
1108,TCU116,1073,-999,23.8568,120.58,493.09,-999,-999
1109,TCU117,1074,-999,24.1335,120.46,198.58,-999,-999
1110,TCU118,1075,-999,24.0027,120.424,236.19,-999,-999
1111,TCU119,1076,-999,23.9242,120.312,221.7,-999,-999
1112,TCU120,1077,-999,23.9803,120.613,459.34,-999,-999
1113,TCU122,1078,-999,23.8128,120.61,475.46,-999,-999
1114,TCU123,1079,-999,24.0187,120.544,270.22,-999,-999
1115,TCU128,1080,-999,24.4162,120.761,599.64,-999,-999
1116,TCU129,1081,-999,23.8783,120.684,511.18,-999,-999
1117,TCU136,1082,-999,24.2603,120.652,462.1,-999,-999
1118,TCU138,1083,-999,23.9223,120.595,652.85,-999,-999
1119,TCU140,1084,-999,23.9578,120.359,223.6,-999,-999
1120,TCU141,1085,-999,23.8338,120.464,223.04,-999,-999
1121,TCU145,1086,-999,23.98,120.337,240.43,-999,-999
1122,TCU147,1087,-999,24.8592,121.247,537.92,-999,-999
739,Tekirdag,1088,-999,40.979,27.515,521.76,-999,-999
740,Tokat,1089,-999,40.329,36.554,323.8,-999,-999
189,Torre Del Greco,1090,-999,40.801,14.386,593.35,-999,-999
741,Tosya,1091,-999,41.013,34.037,361.8,-999,-999
690,TOT,1092,-999,35.485,134.24,609,-999,-999
285,TRA-642 ETR Reactor Bldg(Bsmt),1093,-999,43.5881,-112.965,324.2,-999,-999
286,TRA-670 ATR Reactor Bldg(Bsmt),1094,-999,43.585,-112.962,324.2,-999,-999
190,Tricarico,1095,-999,40.621,16.157,496.46,-999,-999
1123,TTN,1096,-999,22.754,121.146,298.72,-999,-999
1124,TTN001,1097,-999,23.3178,121.442,484.6,-999,-999
1125,TTN002,1098,-999,22.9738,121.297,667.36,-999,-999
1126,TTN003,1099,-999,22.6178,120.997,506.64,-999,-999
1127,TTN004,1100,-999,22.9102,121.129,463.59,-999,-999
1128,TTN005,1101,-999,22.7568,121.14,407.59,-999,-999
1129,TTN006,1102,-999,22.7717,121.138,283.21,-999,-999
1130,TTN007,1103,-999,22.7647,121.143,282.7,-999,-999
1131,TTN008,1104,-999,22.7602,121.152,292.61,-999,-999
1132,TTN009,1105,-999,22.7488,121.144,313.96,-999,-999
1133,TTN010,1106,-999,22.74,121.114,311.34,-999,-999
1134,TTN012,1107,-999,22.7662,121.133,288.3,-999,-999
1135,TTN013,1108,-999,22.7678,121.128,297.76,-999,-999
1136,TTN014,1109,-999,23.0992,121.365,533.97,-999,-999
1137,TTN015,1110,-999,22.754,121.146,487.91,-999,-999
1138,TTN016,1111,-999,22.3575,120.896,826.15,-999,-999
1139,TTN018,1112,-999,22.8207,121.072,573.04,-999,-999
1140,TTN020,1113,-999,23.1268,121.206,453.71,-999,-999
1141,TTN022,1114,-999,23.0973,121.211,398.81,-999,-999
1142,TTN023,1115,-999,23.053,121.156,527.54,-999,-999
1143,TTN024,1116,-999,22.9725,121.108,671.52,-999,-999
1144,TTN025,1117,-999,22.9045,121.072,704.96,-999,-999
1145,TTN026,1118,-999,22.863,121.083,573.04,-999,-999
1146,TTN027,1119,-999,22.8078,121.086,428.95,-999,-999
1147,TTN028,1120,-999,22.779,121.054,616.17,-999,-999
1148,TTN031,1121,-999,23.3563,121.46,510.62,-999,-999
1149,TTN032,1122,-999,23.2462,121.406,734.26,-999,-999
1150,TTN033,1123,-999,23.193,121.388,670.8,-999,-999
1151,TTN036,1124,-999,22.7988,121.186,538.69,-999,-999
1152,TTN040,1125,-999,23.1512,121.198,728.01,-999,-999
1153,TTN041,1126,-999,23.1342,121.118,418.24,-999,-999
1154,TTN042,1127,-999,23.0007,121.277,845.34,-999,-999
1155,TTN044,1128,-999,23.0068,121.165,419.63,-999,-999
1156,TTN045,1129,-999,22.9757,121.148,539.98,-999,-999
1157,TTN046,1130,-999,22.9658,121.232,528.12,-999,-999
1158,TTN047,1131,-999,22.8402,121.131,573.04,-999,-999
1159,TTN048,1132,-999,22.773,121.083,373.54,-999,-999
1160,TTN050,1133,-999,22.674,121.029,573.04,-999,-999
1161,TTN051,1134,-999,23.1887,121.017,665.2,-999,-999
290,Turangi Telephone Exchange,1135,081A,-38.991,175.806,356.39,-999,-999
742,Usak,1136,-999,38.671,29.404,356.39,-999,-999
315,Veroia (bsmt),1137,-999,40.526,22.203,490.65,-999,-999
560,WBS,1138,-999,50.808,7.286,525.95,-999,-999
1162,WGK,1139,-999,23.6862,120.562,258.89,-999,-999
1163,WNT,1140,-999,23.8783,120.684,511.18,-999,-999
1164,WTC,1142,-999,23.8635,120.281,207.69,-999,-999
694,Yae,1143,-999,34.68,135.612,256,-999,-999
743,Yarimca,1144,-999,40.7644,29.762,297,-999,-999
744,Zeytinburnu,1145,-999,40.986,28.908,341.56,-999,-999
1182,Maku,1146,37,39.3,44.53,432.58,-999,-999
1275,Loma Linda Univ Medical Center,1147,129,34.05,-117.264,348.87,300,1440
621,LA - Griffith Park Observatory,1148,141,34.118,-118.299,1015.88,320,320
1304,El Centro - Meadows Union School,1149,464,32.8,-115.473,276.25,380,2900
1209,Alhambra - LA Co PW HQ FF,1150,482,34.0842,-118.152,338.99,320,2140
626,LA - Wadsworth VA Hospital North,1151,5082,34.052,-118.451,392.24,320,1420
627,LA - Wadsworth VA Hospital South,1152,5082,34.052,-118.451,413.81,320,1420
619,Jensen Filter Plant Generator Building,1153,655,34.313,-118.498,525.79,320,4220
1307,Hinds Plumbing Plant,1155,817,33.708,-115.628,667.13,20,1780
1292,Martis Creek Dam (Dwn Stream),1156,1133,39.3281,-120.117,422.25,0,0
1293,Martis Creek Dam (Left Abtmnt),1157,1133,39.3276,-120.12,418.98,0,0
1294,Martis Creek Dam (Right Abtmnt),1158,1133,39.3282,-120.114,553.32,0,0
1207,Hollister - City Hall Annex,1159,1575,36.851,-121.402,272.8,0,0
520,Larkspur Ferry Terminal (FF),1160,1590,37.946,-122.508,169.72,0,0
1351,Sunol - Ohlone Wilderness Reg Pk,1162,1684,37.515,-121.83,497.42,0,0
545,Sunol - Forest Fire Station,1163,1688,37.597,-121.88,400.62,0,0
507,Dublin - Fire Station,1164,1689,37.709,-121.932,318.31,0,0
1249,Danville Fire Station,1165,1690,37.81,-121.992,365.26,0,0
1257,Pleasant Hill Fire Station #2,1166,1691,37.927,-122.078,382.77,0,0
1340,Los Gatos - Los Altos Rod & Gun,1167,1697,37.239,-122.106,570.88,0,0
1336,Cupertino - Sunnyvale Rod & Gun,1169,1720,37.299,-122.085,437.07,0,0
1260,Richmond Rod & Gun Club,1170,1722,37.978,-122.366,204.69,0,0
1261,San Francisco - 9th Circuit Crt,1171,1735,37.779,-122.411,303.06,0,0
1250,El Cerrito - Mira Vista Country,1172,1737,37.934,-122.3,533.89,0,0
1352,Union City - Masonic Home,1173,1739,37.6,-122.006,557.38,0,0
1263,San Francisco - Marina School,1174,1741,37.804,-122.443,240.92,0,0
1348,San Jose - Weather Station,1175,1742,37.35,-121.904,277.09,0,0
1255,Petaluma Fire Station,1176,1743,38.267,-122.658,371.02,0,0
1342,Menlo Park - USGS Bldg #15 FF,1177,1745,37.457,-122.169,305.25,0,0
1259,Richmond - Point Molate,1178,1749,37.95,-122.417,597.34,0,0
1337,Fremont - Coyote Hills Park,1179,1750,37.553,-122.091,550.92,0,0
1254,Novato Fire Station #4,1180,1751,38.067,-122.537,246.61,0,0
1353,Woodside - Filoli Visitor Center,1181,1752,37.468,-122.308,632.35,0,0
1251,Foster City - Bowditch School,1182,1753,37.56,-122.249,200.28,0,0
1338,Hayward Fire - Station #1,1183,1754,37.672,-122.081,350.9,0,0
1247,Alameda Fire Station #1,1184,1755,37.763,-122.244,288.29,0,0
1246,Alameda - Oakland Airport FS #4,1185,1756,37.738,-122.253,220.2,0,0
1343,Morgan Hill - El Toro Fire Sta,1186,1758,37.141,-121.663,327.8,0,0
1266,Vallejo Fire Station #1,1187,1759,38.108,-122.248,352.79,0,0
1248,Benicia Fire Station #1,1188,1760,38.054,-122.157,246.61,0,0
1265,Sonoma Fire Station #1,1189,1761,38.29,-122.457,299.37,0,0
1253,Novato Fire Station #1,1190,1762,38.097,-122.565,285.33,0,0
1252,Napa Fire Station #3,1191,1765,38.33,-122.318,328.57,0,0
1264,Santa Rosa Fire Station #1,1192,1767,38.441,-122.701,388.65,0,0
1256,Petaluma Fire Station #1,1193,1768,38.233,-122.636,395.54,0,0
1262,San Francisco - Fire Station #2,1194,1774,37.762,-122.505,344.76,0,0
1341,Menlo Park - USGS Bldg #11 Shop,1195,1784,37.456,-122.173,305.25,0,0
1258,Pleasanton Fire Station #1,1196,1785,37.66,-121.873,396.43,0,0
1344,Palo Alto - Fire Station #7 SLAC,1197,1787,37.418,-122.206,362.64,0,0
1339,Hollister - Airport Bldg #3,1200,1797,36.891,-121.404,288.67,0,0
1296,Silver Springs Fire Station,1201,2018,39.413,-119.225,306.37,0,0
1291,Carson City - Nevada Com College,1202,2019,39.185,-119.79,436.79,0,0
1295,Reno - Sierra Pacific Power Co,1203,2023,39.466,-119.773,280.26,0,0
1297,Alpine Fire Station,1204,2467,32.838,-116.775,567.81,0,0
1181,Sitka Observatory,1205,2714,57.06,-135.32,649.67,-999,-999
1406,Valdez - Valdez Dock Company,1206,2723,61.13,-146.36,708.02,-999,-999
1184,Yakutat,1207,2728,59.543,-139.726,336.98,-999,-999
1183,Icy Bay,1208,2734,59.968,-141.643,306.37,-999,-999
1399,Valdez - Valdez City Hall,1209,2784,61.1302,-146.355,379.35,-999,-999
1395,Fairbanks - Geophysic. Obs CIGO,1210,2797,64.873,-147.862,338.67,-999,-999
1323,Poway - City Hall Grounds,1211,3449,32.954,-117.04,377.65,0,0
1227,Leona Valley - Fire Station #1,1212,5029,34.6172,-118.285,427.41,0,0
1228,Little Rock Post Office,1213,5030,34.5214,-117.991,442.02,0,0
1242,Valyermo Forest Fire Station,1214,5031,34.4435,-117.853,386.88,0,0
1407,Paradise Springs - Camp Office,1215,5032,34.393,-117.805,488,0,0
1408,San Bernardino - Sycamore FS,1216,5036,34.193,-117.427,630.66,320,1120
1279,Reche Canyon - Olive Dell Ranch,1217,5037,34.0047,-117.224,488,160,340
1219,Forest Falls Post Office,1218,5075,34.088,-116.919,436.14,0,1540
1232,Mill Creek Ranger Station,1219,5076,34.079,-117.045,387.12,320,1500
1270,Highland Fire Station,1220,5161,34.136,-117.213,362.39,160,1240
1231,Mentone Fire Station #9,1221,5162,34.067,-117.117,351.31,320,1940
1299,Borrego Springs - Scripps Clinic,1222,5220,33.1937,-116.329,357.64,120,1500
1210,Anza - Tripp Flats Training,1223,5222,33.6022,-116.756,480.22,0,1200
1318,Mountain Center - Pine Mtn Rnch,1224,5223,33.5778,-116.59,380.64,20,20
1309,Idyllwild - Keenwild Fire Sta.,1225,5232,33.7077,-116.717,845.41,0,0
1208,12440 Imperial Hwy North Grn,1229,5239,33.915,-118.066,276.39,700,3760
657,San Bernardino - Co Service Bldg - Freefield,1230,5245,34.106,-117.287,322,200,600
1217,Devore - Devore Water Company,1232,5265,34.235,-117.407,526.24,320,1260
1314,Mecca Fire Station,1233,5270,33.572,-116.076,298.71,700,3880
1214,Bombay Beach Fire Station,1234,5271,33.3527,-115.733,257.03,260,2140
1333,Imperial Valley - Midway Well,1235,5272,32.708,-115.092,271.37,340,3260
1334,Seeley School,1236,5273,32.7948,-115.691,200.03,540,2540
1245,Wrightwood Post Office,1237,5282,34.36,-117.629,399.84,0,1040
589,LA - 1955 1/2 Purdue Ave. Bsmt,1238,5284,34.04,-118.445,379,320,3580
1330,San Jacinto - MWD West Portal,1239,5289,33.8218,-116.968,456.83,0,1600
1272,Indio - Jackson Road,1240,5294,33.7462,-116.216,292.12,760,1580
1233,North Palm Springs Fire Sta #36,1241,5295,33.9247,-116.548,367.84,820,1620
1195,Pasadena - USGS/NSMP Office,1242,5296,34.1367,-118.129,340,160,1440
1241,Seven Oaks Dam Project Office,1243,5300,34.1105,-117.099,564.93,20,1460
1288,Seven Oaks Dam Right Abt.,1244,5300,34.1105,-117.099,564.93,20,1460
1287,Seven Oaks Dam Downstream Surf.,1245,5300,34.1105,-117.099,626.44,20,1460
1282,San Bernardino - Fire Sta. #7,1246,5327,34.165,-117.288,441.33,320,1440
1239,San Bernardino - Mont. Mem Pk,1247,5328,34.047,-117.277,358.92,220,920
1281,San Bernardino - Fire Sta. #11,1248,5329,34.069,-117.275,316.83,340,1960
1238,San Bernardino - Fire Sta. #9,1249,5330,34.103,-117.349,325.97,180,360
1235,San Bernardino - Del Rosa Wk Sta,1250,5331,34.1663,-117.251,642.83,20,1520
1286,San Bernardino - Serrano School,1251,5336,34.1449,-117.219,396.01,160,1240
1237,San Bernardino - Fire Sta. #4,1252,5337,34.14,-117.294,322.53,200,320
1236,San Bernardino - Fire Sta. #10,1253,5339,34.091,-117.289,279.46,280,1340
1268,Colton - Kaiser Medical Clinic,1254,5341,34.058,-117.305,432.47,240,940
1240,San Bernardino - N Verdemont Sch,1255,5371,34.205,-117.365,495.59,320,1340
1310,Idyllwild - Kenworthy Fire Sta.,1256,5372,33.6159,-116.621,382.44,20,20
1283,San Bernardino - Lincoln School,1257,5373,34.1229,-117.288,426.21,200,320
1320,Ocotillo Wells - Veh. Rec. Area,1258,5375,33.1557,-116.168,361.22,140,140
1229,Los Angeles - Acosta Residence,1259,5396,34.073,-118.117,330.03,320,2240
1215,Burbank Airport,1260,5398,34.1949,-118.354,422.33,340,1200
1225,Los Angeles; LAX Fire Station,1261,5399,33.943,-118.411,424.54,720,2440
1218,Fillmore Pac Bell,1262,5401,34.397,-118.918,420.48,980,6580
1212,Beverly Hills Pac Bell Bsmt,1263,5402,34.0762,-118.396,460.09,320,1980
1216,Calabasas Pac Bell,1264,5404,34.155,-118.641,373.3,100,2360
1226,La Canada - Wald Residence,1265,5408,34.2096,-118.186,399.8,100,320
1230,Lytle Creek Fire Station,1266,5409,34.233,-117.482,414.03,0,1340
1410,Sylmar - Fire Station #91,1268,5423,34.3088,-118.448,398.94,100,4420
1409,Sky Valley - Fire Station #56,1269,5435,33.9168,-116.39,388.63,180,1740
1393,Anchorage International Airport,1270,8007,61.1824,-149.997,341.56,-999,-999
1364,Anchorage - Aho Res (Basement),1271,8017,61.1959,-149.947,341.56,-999,-999
1401,Eagle River - AK Geologic Mat,1272,8019,61.3493,-149.541,456.75,-999,-999
1366,Anchorage - Dowl Eng Warehouse,1273,8024,61.1832,-149.885,212.48,-999,-999
1392,Anchorage - State Fish & Game,1274,8027,61.1609,-149.889,212.48,-999,-999
1391,Anchorage - Police Headquarters,1275,8030,61.1795,-149.806,272.24,-999,-999
1365,Anchorage - DOI Off. of Aircraft,1276,8036,61.1779,-149.966,212.48,-999,-999
1388,Anchorage - NOAA Weather Fac.,1277,8037,61.1562,-149.984,390.32,-999,-999
1389,Anchorage - New Fire Station #1,1278,8038,61.2184,-149.883,272.24,-999,-999
1390,Anchorage - New Fire Station #7,1279,8039,61.1416,-149.951,456.75,-999,-999
597,North Shore - Durmid,1280,11591,33.421,-115.831,382.07,200,1980
598,North Shore - Salton Sea Pk HQ,1281,11613,33.504,-115.913,265.16,140,1380
594,Mecca - CVWD Yard,1282,11625,33.564,-115.987,318,700,2140
603,Salton City,1283,11628,33.28,-115.984,324.5,120,1260
1220,Frink,1284,11684,33.398,-115.657,384.66,500,500
1301,Coachella - 6th & Palm,1285,12076,33.678,-116.178,263,700,2880
1324,Radec - Sage & Cottonwood School,1286,12092,33.482,-116.911,407.49,0,0
1331,San Jacinto CDF Fire Station 25,1287,12102,33.787,-116.959,306.76,0,1280
1308,Idyllwild - Hwy 243 & Pine Crest,1288,12116,33.747,-116.715,632.54,0,0
588,Indio - Riverside Co Fair Grnds,1289,12543,33.715,-116.221,282.14,700,2280
593,Lake Cachulla,1290,12624,33.628,-116.28,473.8,80,80
585,Desert Shores,1291,12626,33.426,-116.078,370.6,260,260
606,Snow Creek,1292,12630,33.888,-116.684,523.59,0,1280
602,Sage - Fire Station,1293,12636,33.58,-116.931,564.11,0,0
1223,Joshua Tree N.M. - Keys View,1294,12647,33.925,-116.172,686.12,20,20
1211,Banning - Twin Pines Road,1295,12674,33.869,-116.824,667.42,0,1320
1273,Indio - Monroe & Carreon,1297,12904,33.706,-116.235,281.74,700,2020
1298,Beaumont - 6th & Maple,1298,12919,33.93,-116.972,315.21,0,2720
1305,Hemet - Acacia & Stanford,1299,12923,33.744,-116.931,351.68,0,0
1312,La Quinta - Bermudas & Durango,1300,12951,33.671,-116.3,360.32,80,80
1321,Palm Desert - Country Club & Por,1301,12952,33.758,-116.374,323.54,700,800
1325,Rancho Mirage - G Ford & B Hope,1302,12953,33.787,-116.41,292.32,700,1000
1311,Indian Wells - Hwy111 & El Dorad,1303,12966,33.723,-116.338,311.18,520,1100
1354,Anaheim - Brookhurst & Crescent,1304,13066,33.84,-117.957,275.12,620,2680
1355,Anaheim - Hwy 91 & Weir Cyn Rd,1305,13068,33.863,-117.742,484.66,320,2240
1327,Riverside - Hwy 91 & Van Buren,1306,13079,33.917,-117.443,333.31,160,320
1317,Moreno Valley - Sunny Mead & Vil,1307,13080,33.968,-117.252,414.83,0,0
1306,Hemet - Cawston & Devonshire,1308,13093,33.751,-117.015,333.7,0,0
1319,Nuevo - 11th & McKinley,1309,13095,33.818,-117.312,648.81,0,0
1300,Canyon Lake Vacation Dr&San Joaq,1310,13096,33.699,-117.267,646,0,0
1303,Corona - Hwy 91 & McKinley,1311,13098,33.884,-117.514,354.82,160,320
1302,Corona - 6th & Smith,1312,13099,33.876,-117.593,420,180,320
1359,Corona - Green River & Cyn Crest,1313,13100,33.875,-117.636,390.08,320,540
1356,Anaheim - Lakeview & Riverdale,1318,13849,33.854,-117.817,359.47,320,2280
1357,Brea - Central Ave Caltrans Yard,1319,13873,33.933,-117.896,396.21,440,2900
1360,Fullerton - CSU Fullerton Grnds,1323,13878,33.889,-117.886,376.96,520,3960
1362,Fullerton - Valencia&Brookhurst,1324,13879,33.866,-117.958,283.34,660,3300
1361,Fullerton - Hermosa & Harbor,1325,13880,33.91,-117.93,306.6,560,3000
1363,La Habra - La Habra&Monte Vista,1326,13881,33.932,-117.955,331.73,580,3280
1326,Riverside - Hole & La Sierra,1340,13913,33.919,-117.488,334.99,160,320
1280,Riverside - I215 & 3rd,1341,13915,33.979,-117.344,340.65,160,320
1329,Riverside - Van Buren&Trautwein,1342,13916,33.895,-117.32,581.8,0,0
1328,Riverside - Limonite & Downey,1344,13921,33.975,-117.486,329.84,160,320
1313,Lake Elsinore - Graham & Poe,1345,13922,33.669,-117.332,581,0,0
1271,Homeland - Hwy 74 & Sultanas,1346,13924,33.748,-117.127,381.71,0,0
1277,Moreno Valley - Indian & Kennedy,1347,13925,33.902,-117.234,308.33,0,0
1276,Moreno Valley - Alessandro&More,1349,13927,33.921,-117.173,338.19,0,860
1322,Perris - San Jacinto & C Street,1350,13928,33.787,-117.23,518,0,0
1315,Menifee Valley - Murrieta&Scott,1351,13929,33.649,-117.205,503,0,0
1289,Sun City - I215 & McCall Blvd,1352,13930,33.715,-117.191,353.54,0,0
1224,LA - MLK Hospital Grounds,1361,14787,33.92,-118.24,273.57,780,4760
1243,Whittier - Scott & Whittier,1375,14840,33.946,-118,399.45,580,3620
1520,Pomona - Orange Grove & Fairplex,1379,23837,34.063,-117.784,368.88,200,320
1513,La Puente - Amar & Hacienda,1380,23843,34.036,-117.95,336.6,280,2780
1205,Jiashi,1386,19001,39.496,76.739,240.09,-999,-999
1206,Xiker,1387,19002,39.817,77.369,341.56,-999,-999
584,Big Bear Lake - Civic Center,1388,22561,34.238,-116.935,430.36,0,1460
1213,Big Bear Lake - Fire Station,1389,22791,34.241,-116.872,406.7,0,1340
1332,Twentynine Palms - Two Miles&Alp,1390,22954,34.149,-116.084,378.43,0,1400
1274,Landers - Hwy 247 & Jesse,1391,22959,34.282,-116.453,370.36,0,980
1494,Tarzana - Club House,1395,24103,34.16,-118.532,476.32,220,900
1316,Mira Loma - Mission&San Sevaine,1396,23091,34.014,-117.511,342.5,160,320
1194,Cogswell Dam - Right Abutment,1398,23210,34.425,-117.964,680.37,0,0
604,San Bernardino - 2nd & Arrowhead,1399,23522,34.103,-117.288,325.83,220,720
587,Hesperia - 4th & Palm,1400,23583,34.405,-117.313,358.36,0,1220
599,Pear Blossom - Pallet Creek,1401,23584,34.458,-117.909,624.01,0,0
1662,Tarzana - Cedar Hill B,1402,24764,34.16,-118.534,411.4,220,1020
1285,San Bernardino - Mtn Vw & Clstr,1406,23780,34.096,-117.287,314.48,260,1040
1267,Colton - Hospital Complex FF,1407,23788,34.074,-117.35,328.92,180,320
1524,West Hills -Roscoe & Fallbrook,1408,24804,34.219,-118.627,326.47,100,2480
1645,Northridge - Parthenia & Lindley,1409,24805,34.229,-118.527,348.59,340,3120
1502,Hollywood - Sunset & Fairfax,1413,24809,34.097,-118.352,412.25,20,1220
1284,San Bernardino - Medical Center,1414,23898,34.135,-117.322,328.6,320,320
1290,Yucaipa Valley - Calimesa & Cnty,1417,23920,34.004,-117.058,346.82,320,2460
1507,Los Angeles - Colorado & Eagle Rock,1418,24814,34.14,-118.21,418.83,320,320
1517,North Hollywood - Laurel Canyon & Sherman,1419,24815,34.199,-118.396,303.1,340,1740
1510,Los Angeles - Vermont & Pico,1420,24816,34.049,-118.29,312.69,320,2040
1269,Helendale - Helendale & Vista,1421,23957,34.744,-117.334,336.33,0,1660
1278,Pinon Hills - Hwy 138 & Mtn Road,1422,23958,34.439,-117.647,423,0,1240
1511,Los Angeles - Veteran & Wilshire,1423,24819,34.06,-118.448,381.89,320,1180
1508,Los Angeles - Olive & Pico,1425,24838,34.037,-118.263,305.01,320,2240
1234,Pasadena - Fair Oaks & Walnut,1426,24691,34.149,-118.15,430.69,100,1060
1519,Pico Rivera - Durfee & Whittier,1427,24841,34.002,-118.077,261.45,520,2880
1196,Sylmar - County Hospital Grounds,1429,24763,34.327,-118.444,420.81,100,5040
1506,Los Angeles - Beverly Blvd & Virgil,1431,24853,34.077,-118.286,439.6,320,1940
1651,Piru - Church St & Camulos,1432,24855,34.413,-118.796,371.58,1080,6060
1496,Camarillo - Woodcreek & Santa Rosa,1435,24863,34.224,-118.994,383.99,160,320
1522,Universal City - Hwy 101 & Lankershim,1436,24865,34.139,-118.364,365.47,220,900
1523,Van Nuys - Civic Center Grounds,1438,24867,34.184,-118.447,304.04,320,2260
1646,Ojai - Ojai Av & Fairway Ln,1443,25854,34.448,-119.23,376.16,320,320
1632,Bakersfield - Stockdata & California,1444,35365,35.355,-119.054,241.21,0,5560
1712,Parkfield - Stone Corral 1E,1445,36419,35.788,-120.294,260.63,0,5460
1527,Half Moon Bay - Hwy 101/Tunitas GeoArray,1462,58964,37.36,-122.395,353.43,0,0
1528,Napa - Napa College,1464,68150,38.27,-122.276,331.66,0,0
1526,Rohnert Park - Hwy 101 Geo Array,1465,68797,38.35,-122.71,339.51,0,0
1358,City of Commerce - Whittier &,1468,24941,34.018,-118.147,336.07,520,2820
1335,Big Sur - Hwy 1 & Pfeiffer Cyn,1475,47729,36.239,-121.774,664.49,0,0
1345,Salinas - County Hospital Gnds,1477,47762,36.697,-121.634,315.31,0,0
1350,Santa Cruz - Co Office Bldg Gnds,1478,48906,36.978,-122.021,321.91,0,0
1448,Los Gatos - Lexington Dam,1479,57180,37.202,-121.991,1070.34,0,0
539,San Jose - Santa Teresa Hills,1480,57563,37.21,-121.803,671.77,0,0
1346,San Jose - Emory & Bellrose,1481,57600,37.329,-121.937,286.6,0,0
1347,San Jose - S Clara Co Bldg Grnd,1482,57604,37.354,-121.904,268.86,0,0
1349,Santa Clara - Hwy 237/Alviso OVP,1483,57748,37.42,-121.973,188.87,0,0
521,Lower Crystal Springs Dam dwnst,1486,58233,37.529,-122.361,586.08,0,0
523,Oakland - Outer Harbor Wharf,1487,58472,37.813,-122.314,248.62,0,0
508,Dumbarton Bridge West End FF,1488,58664,37.492,-122.136,238.06,0,0
525,Olema - Point Reyes Station,1490,68003,38.043,-122.797,418.07,0,0
1188,Gachesar,1493,-999,36.11,51.31,476.62,-999,-999
1180,Juneau Fisheries Lab,1494,2708,58.382,-134.642,521.76,-999,-999
1186,Abbar,1495,-999,36.92,48.95,723.95,-999,-999
1187,Abhar,1496,-999,36.15,49.22,302.64,-999,-999
1426,CHY030,1497,-999,23.6443,120.476,204.71,-999,-999
1437,CHY037,1498,-999,23.5562,120.42,212.14,-999,-999
1411,CHY056,1499,-999,23.2627,120.132,193,-999,-999
1412,CHY075,1500,-999,23.5672,119.555,465.86,-999,-999
1413,CHY111,1501,-999,23.7912,120.227,276.34,-999,-999
1414,CHY112,1502,-999,23.7035,120.183,239.77,-999,-999
1415,CHY114,1503,-999,23.0372,120.119,221.31,-999,-999
1416,CHY115,1504,-999,23.149,120.079,259.43,-999,-999
1438,ILA019,1505,-999,24.6437,121.691,671.52,-999,-999
1439,ILA028,1506,-999,24.7555,121.747,221.1,-999,-999
1427,KAU017,1507,-999,22.509,120.386,284.78,-999,-999
1431,KAU035,1508,-999,22.5488,120.533,309.72,-999,-999
1432,KAU036,1509,-999,22.473,120.543,232.76,-999,-999
1428,KAU045,1510,-999,22.5678,120.308,150.18,-999,-999
1429,KAU055,1511,-999,22.5747,120.335,277.57,-999,-999
1433,KAU056,1512,-999,22.5538,120.344,283.02,-999,-999
1430,KAU089,1513,-999,22.4805,120.403,189.91,-999,-999
1185,Ocean Floor SEMS III,1514,-999,33.57,-118.13,659.6,1140,3260
1189,Qazvin,1515,-999,36.26,50,302.64,-999,-999
1190,Rudsar,1516,-999,37.13,50.3,242.05,-999,-999
1197,Station #1-Lathrop Wells,1517,-999,36.64,-116.4,302.64,0,0
1198,Station #2-NTS Control Pt. 1,1528,-999,36.93,-116.06,593.35,0,0
1199,Station #3-Beaty,1530,-999,36.91,-116.76,404.23,0,0
1200,Station #4-Pahrump 2,1531,-999,36.23,-116,352.05,0,0
1201,Station #5-Pahrump 1,1532,-999,36.21,-115.98,352.05,0,0
1202,Station #6-Las Vegas Calico Basin,1533,-999,36.15,-115.41,515.4,0,0
1203,Station #7-Las Vegas Ann Road,1534,-999,36.26,-115.31,352.05,0,0
1204,Station #8-Death Valley Scotties Castle,1535,-999,37.03,-117.34,579.23,0,0
1417,TAP033,1537,-999,24.9803,121.529,480.58,-999,-999
1440,TAP040,1538,-999,25.1758,121.434,425.87,-999,-999
1441,TAP050,1539,-999,25.1523,121.396,462.31,-999,-999
1418,TAP088,1540,-999,25.0385,121.576,229.21,-999,-999
1419,TAP089,1541,-999,25.027,121.56,440.21,-999,-999
1434,TAP091,1542,-999,25.0608,121.582,188.02,-999,-999
1420,TAP104,1543,-999,25.158,121.72,631.27,-999,-999
1435,TCU005,1544,-999,25.1053,121.237,497.22,-999,-999
1425,TCU032,1545,-999,24.523,120.815,356.77,-999,-999
1421,TCU035,1546,-999,24.6157,120.788,383.62,-999,-999
1436,TCU044,1547,-999,24.4032,120.758,512.88,-999,-999
1422,TCU073,1548,-999,24.014,120.949,473.65,-999,-999
1442,TCU080,1549,-999,23.9,120.93,489.32,-999,-999
1443,TCU086,1550,-999,23.8635,120.281,222.22,-999,-999
1087,TCU088,1551,-999,24.2533,121.176,665.2,-999,-999
1444,TCU091,1552,-999,24.9823,121.262,479.54,-999,-999
1445,TCU108,1553,-999,24.0865,120.523,260.62,-999,-999
1446,TCU125,1554,-999,23.9552,120.682,397.57,-999,-999
1423,TCU131,1555,-999,24.5673,120.816,490.88,-999,-999
1424,TCU137,1556,-999,24.185,120.922,635.31,-999,-999
1447,TCU139,1557,-999,23.9217,120.54,303.96,-999,-999
1191,Tehran - Building & Housing,1558,-999,35.73,51.37,376.92,-999,-999
1192,Tehran - Sarif University,1559,-999,35.7,51.3,302.64,-999,-999
1193,Tonekabun,1560,-999,36.81,50.87,289.69,-999,-999
1221,Heart Bar State Park,1561,22T04,34.161,-116.799,624.94,0,1360
1400,Carlo (temp),1562,Carl,63.5514,-148.809,399.35,-999,-999
1394,Fairbanks - Ester Fire Station,1563,FA02,64.8455,-148.009,341.56,-999,-999
1367,Anchorage - K2-02,1564,K202,61.224,-149.807,227.18,-999,-999
1368,Anchorage - K2-03,1565,K203,61.2204,-149.743,428.08,-999,-999
1369,Anchorage - K2-04,1566,K204,61.177,-150.01,240.09,-999,-999
1370,Anchorage - K2-05,1567,K205,61.2,-149.911,341.56,-999,-999
1371,Anchorage - K2-06,1568,K206,61.191,-149.822,240.09,-999,-999
1372,Anchorage - K2-07,1569,K207,61.16,-150.001,300.97,-999,-999
1373,Anchorage - K2-08,1570,K208,61.177,-149.919,212.48,-999,-999
1374,Anchorage - K2-09,1571,K209,61.185,-149.744,300.97,-999,-999
1375,Anchorage - K2-10,1572,K210,61.13,-149.928,337.18,-999,-999
1376,Anchorage - K2-11,1573,K211,61.147,-149.855,300.97,-999,-999
1377,Anchorage - K2-12,1574,K212,61.156,-149.792,341.56,-999,-999
1378,Anchorage - K2-13,1575,K213,61.113,-149.856,300.97,-999,-999
1379,Anchorage - K2-14,1576,K214,61.124,-149.766,354.96,-999,-999
1380,Anchorage - K2-15,1577,K215,61.087,-149.75,253.59,-999,-999
1381,Anchorage - K2-16,1578,K216,61.099,-149.685,568.2,-999,-999
1382,Anchorage - K2-17,1579,K217,61.396,-149.513,341.56,-999,-999
1383,Anchorage - K2-18,1580,K218,61.598,-149.133,435.21,-999,-999
1384,Anchorage - K2-19,1581,K219,61.19,-149.985,271.94,-999,-999
1385,Anchorage - K2-20,1582,K220,61.155,-150.053,341.56,-999,-999
1386,Anchorage - K2-21,1583,K221,61.153,-149.949,300.97,-999,-999
1387,Anchorage - K2-22,1584,K222,61.088,-149.834,341.56,-999,-999
1396,TAPS Pump Station #07,1585,ps07,65.3111,-148.279,424.9,-999,-999
1397,TAPS Pump Station #08,1586,ps08,64.5431,-146.819,424.9,-999,-999
1398,TAPS Pump Station #09,1587,ps09,63.9311,-145.768,382.5,-999,-999
1403,TAPS Pump Station #10,1588,ps10,63.4239,-145.766,329.4,-999,-999
1404,TAPS Pump Station #11,1589,ps11,62.0881,-145.481,376.1,-999,-999
1405,TAPS Pump Station #12,1590,ps12,61.4758,-145.144,338.6,-999,-999
1402,R109 (temp),1591,R109,63.3953,-148.647,341.56,-999,-999
1222,Hector,1592,-999,34.8294,-116.335,726,0,560
496,Bear Valley #1 Fire Station,1593,1210,36.573,-121.184,439.58,0,0
1178,Melendy Ranch,1594,1211,36.59,-121.19,425.11,0,0
1179,Stone Canyon Geophys Obs,1595,1343,36.636,-121.234,393.27,0,0
497,Bear Valley #10 Webb Residence,1596,1479,36.532,-121.143,304.08,0,0
498,Bear Valley #12 Williams Ranch,1597,1481,36.658,-121.249,331.21,0,0
499,Bear Valley #14 Upper Butts Rn,1598,1483,36.569,-121.043,422.79,0,0
500,Bear Valley #5 Callens Ranch,1599,1474,36.673,-121.195,391.01,0,0
501,Bear Valley #7 Pinnacles,1600,1476,36.483,-121.18,509.87,0,0
505,Calaveras Reservoir,1601,1687,37.452,-121.807,571.99,0,0
503,Berkeley - Strawberry Canyon,1602,1005,37.87,-122.24,512.27,0,0
509,Emeryville; Pacific Park #2 Free Field,1603,1662,37.844,-122.295,198.74,0,0
531,SF - 1295 Shafter,1604,1675,37.728,-122.385,362.4,0,0
510,Foster City - Menhaden Court,1605,1515,37.555,-122.248,126.4,0,0
515,Hayward City Hall - North,1606,1129,37.679,-122.082,735.44,0,0
1449,Monte Nido Fire Station,1607,5080,34.078,-118.694,589.78,0,0
1450,Loma Linda; VA Hospital North Freefield,1608,5229,34.051,-117.25,342.79,280,1220
1451,Loma Linda; VA Hospital South Freefield,1609,5229,34.048,-117.251,370.09,280,1280
1452,Los Angeles - So Cal Edison,1610,-999,34.05,-118.25,376.07,320,2120
1453,Tarcento,1611,-999,46.226,13.21,629.08,-999,-999
1454,Cairano 1,1612,-999,40.89,15.296,525.95,-999,-999
1455,Cairano 2,1613,-999,40.887,15.312,477.35,-999,-999
1456,Cairano 3,1614,-999,40.887,15.334,466.87,-999,-999
1457,Cairano 4,1615,-999,40.886,15.348,535.24,-999,-999
1458,Conza-Base,1616,-999,40.875,15.327,477.35,-999,-999
1459,SMART1 I03,1617,-999,24.6744,121.767,314.88,-999,-999
1460,SMART1 I09,1618,-999,24.6732,121.763,309.41,-999,-999
1461,SMART1 M02,1619,-999,24.6815,121.772,306.78,-999,-999
1462,SMART1 M03,1620,-999,24.6769,121.773,306.78,-999,-999
1463,SMART1 M04,1621,-999,24.6718,121.774,306.38,-999,-999
1464,SMART1 M05,1622,-999,24.6683,121.772,306.38,-999,-999
1465,SMART1 M08,1623,-999,24.667,121.758,301.05,-999,-999
1466,SMART1 M09,1624,-999,24.6703,121.755,321.63,-999,-999
1467,SMART1 M10,1625,-999,24.675,121.756,321.63,-999,-999
1468,SMART1 M11,1626,-999,24.6799,121.757,300.22,-999,-999
1469,SMART1 M12,1627,-999,24.6824,121.762,275.82,-999,-999
1470,SMART1 O03,1628,-999,24.6793,121.784,278.32,-999,-999
1471,SMART1 O05,1629,-999,24.662,121.78,286.03,-999,-999
1472,SMART1 O09,1630,-999,24.6674,121.746,329.08,-999,-999
1473,SMART1 I02,1631,-999,24.675,121.766,309.41,-999,-999
1474,SMART1 I04,1632,-999,24.6734,121.767,314.88,-999,-999
1475,SMART1 I08,1633,-999,24.6725,121.764,309.41,-999,-999
1476,SMART1 I10,1634,-999,24.6741,121.763,309.41,-999,-999
1477,SMART1 I11,1635,-999,24.6749,121.763,309.41,-999,-999
1478,SMART1 O11,1636,-999,24.6856,121.751,295.17,-999,-999
1479,Cassino-Sant' Elia,1637,-999,41.523,13.864,436.79,-999,-999
1480,Garigliano-Centrale Nucleare 2,1638,-999,41.258,13.833,228.85,-999,-999
1481,San Agapito,1639,-999,41.567,14.233,477.35,-999,-999
1482,SMART1 I05,1640,-999,24.6726,121.766,309.41,-999,-999
1483,Winchester Hidden Valley Farms,1641,13200,33.681,-117.056,481.6,0,0
1484,Bunker Hill FAA,1642,-999,40.4976,-124.295,566.42,0,0
1485,Butler Valley Station 2,1643,-999,40.78,-123.88,525.26,0,0
1486,Centerville Beach Naval Fac,1644,-999,40.563,-124.348,459.04,0,0
1487,College of the Redwoods,1645,-999,40.6994,-124.201,492.74,0,0
1488,Ferndale Fire Station,1646,-999,40.5762,-124.264,387.95,0,0
1489,Fortuna Fire Station,1647,-999,40.5891,-124.148,355.18,0,0
1490,Loleta Fire Station,1648,-999,40.6442,-124.221,515.65,0,0
1491,South Bay Union School,1649,-999,40.735,-124.208,459.04,0,0
1492,Morongo Valley Hall (GEOS #58),1650,-999,35.043,-116.572,368.2,0,0
1493,Thousand Palms Post Office,1651,5068,33.8166,-116.395,333.89,700,1600
1495,Anaheim - Kraemer & La Palma,1652,13883,33.853,-117.857,283.54,460,2460
1497,Corona - California Ave,1653,13726,33.8556,-117.54,334.85,160,320
1498,Cypress Park - San Fernando & Division,1654,24813,34.096,-118.23,370.69,320,1660
1499,Downey - Florence & I605,1655,14828,33.939,-118.098,274.73,660,3800
1500,Garden Grove - Hwy 22 & Harbor,1656,13884,33.766,-117.918,283.73,540,4800
1501,Hollywood - Franklin & Bronson,1657,24810,34.103,-118.316,413.39,320,2020
1503,JPL BLDG #179 W ARRGND CLEAN,1658,5410,34.199,-118.174,366.69,100,320
1504,Los Angeles - 1st & Figueroa,1659,24839,34.058,-118.252,337.71,320,2080
1505,Los Angeles - 3rd & La Brea LADOT,1660,24851,34.07,-118.346,320.88,320,2100
1509,Los Angeles - Sunset & Kenter,1661,24817,34.059,-118.479,394.19,320,380
1512,Los Angeles - Washington & La Brea,1662,24818,34.041,-118.348,333.75,520,3440
1514,Mission Hills - Sepulveda & San Fernando,1663,24800,34.273,-118.464,328.43,360,3500
1516,Newport Beach - Balboa Island,1664,13877,33.605,-117.89,361.56,200,2880
1521,San Diego - UCSD Hospital Grnds,1665,3746,32.754,-117.164,516.97,0,0
1529,Anchorage - K2-01,1666,-999,61.235,-149.869,425,-999,-999
1525,Woodland Hills - Victory & Fallbrook,1667,24803,34.185,-118.623,308.33,220,2580
1530,Valdez - Civic Center,1668,-999,61.1263,-146.357,330,-999,-999
1531,Fairbanks - Univ of Alaska,1669,-999,64.8594,-147.848,428.08,-999,-999
1532,HRS001,1670,HRS001,35.0305,132.904,361.6,-999,-999
1533,HRS002,1671,HRS002,34.8919,133.278,458.14,-999,-999
1534,HRS003,1672,HRS003,34.8111,132.844,335.55,-999,-999
1535,HRS004,1673,HRS004,34.723,132.28,670.13,-999,-999
1536,HRS005,1674,HRS005,34.7738,133.283,466.28,-999,-999
1537,HRS006,1675,HRS006,34.6627,132.41,457.52,-999,-999
1538,HRS007,1676,HRS007,34.7,133.097,619.94,-999,-999
1539,HRS008,1677,HRS008,34.6075,132.722,538.73,-999,-999
1540,HRS010,1678,HRS010,34.5855,133.053,310.96,-999,-999
1541,HRS011,1679,HRS011,34.5644,133.239,589.66,-999,-999
1542,HRS012,1680,HRS012,34.4244,132.745,327.65,-999,-999
1543,HRS015,1681,HRS015,34.4816,133.364,250.27,-999,-999
1544,HRS016,1682,HRS016,34.4166,133.2,571.63,-999,-999
1545,HRS017,1683,HRS017,34.4008,133.086,559.22,-999,-999
1546,HRS021,1684,HRS021,34.9497,133.12,409.29,-999,-999
1547,HRSH01,1685,HRSH01,34.3704,133.026,445.82,-999,-999
1548,HRSH02,1686,HRSH02,34.545,132.951,390.78,-999,-999
1549,HRSH03,1687,HRSH03,34.515,133.14,486.78,-999,-999
1550,HRSH04,1688,HRSH04,34.3753,133.352,447.75,-999,-999
1551,HRSH05,1689,HRSH05,34.5534,133.421,370.59,-999,-999
1552,HRSH06,1690,HRSH06,34.9105,132.915,280.92,-999,-999
1553,HRSH09,1691,HRSH09,34.6983,132.955,495.15,-999,-999
1554,HYG001,1692,HYG001,35.6163,134.453,459.58,-999,-999
1555,HYG004,1693,HYG004,35.455,134.577,834.56,-999,-999
1556,HYG006,1694,HYG006,35.3294,134.668,595.63,-999,-999
1557,HYG007,1695,HYG007,35.1605,134.549,760.54,-999,-999
1558,HYG011,1696,HYG011,34.9816,134.326,399.72,-999,-999
1559,HYG012,1697,HYG012,34.9927,134.555,481.5,-999,-999
1560,HYG016,1698,HYG016,34.7519,134.393,189.16,-999,-999
1561,HYGH02,1699,HYGH02,35.0639,134.426,617.44,-999,-999
1562,HYGH03,1700,HYGH03,35.2161,134.526,511.5,-999,-999
1563,HYGH05,1701,HYGH05,34.8963,134.331,532.54,-999,-999
1564,HYGH06,1702,HYGH06,34.7903,134.482,368.56,-999,-999
1565,HYGH07,1703,HYGH07,35.0278,134.674,510.19,-999,-999
1566,HYGH12,1704,HYGH12,34.9281,134.545,677.44,-999,-999
1567,OKY002,1705,OKY002,35.1755,134.053,592.05,-999,-999
1568,OKY003,1706,OKY003,35.1705,134.341,537.95,-999,-999
1569,OKY004,1707,OKY004,34.9547,133.504,475.8,-999,-999
1570,OKY005,1708,OKY005,35.0066,133.734,293.37,-999,-999
1571,OKY006,1709,OKY006,35.0652,134.008,516.67,-999,-999
1572,OKY007,1710,OKY007,34.7775,133.615,337.95,-999,-999
1573,OKY008,1711,OKY008,34.8669,133.906,450.61,-999,-999
1574,OKY009,1712,OKY009,34.9144,134.095,371.56,-999,-999
1575,OKY010,1713,OKY010,34.7422,134.191,336.8,-999,-999
1576,OKY011,1714,OKY011,34.6508,133.909,212.21,-999,-999
1577,OKY012,1715,OKY012,34.5861,133.757,296.96,-999,-999
1578,OKY013,1716,OKY013,34.5063,133.512,472.37,-999,-999
1579,OKY014,1717,OKY014,34.443,133.79,362.21,-999,-999
1580,OKY015,1718,OKY015,35.2761,133.928,312.67,-999,-999
1581,OKYH01,1719,OKYH01,34.5036,133.893,238.49,-999,-999
1582,OKYH02,1720,OKYH02,34.7468,134.073,1047.01,-999,-999
1583,OKYH03,1721,OKYH03,34.775,133.792,316.76,-999,-999
1584,OKYH04,1722,OKYH04,34.6397,133.689,360.16,-999,-999
1585,OKYH05,1723,OKYH05,34.8652,133.855,610.22,-999,-999
1586,OKYH06,1724,OKYH06,34.6724,133.531,551.88,-999,-999
1587,OKYH07,1725,OKYH07,35.0461,133.32,940.2,-999,-999
1588,OKYH08,1726,OKYH08,34.9071,133.408,694.21,-999,-999
1589,OKYH09,1727,OKYH09,35.1777,133.679,518.92,-999,-999
1590,OKYH10,1728,OKYH10,35.2794,133.929,553.65,-999,-999
1591,OKYH11,1729,OKYH11,35.07,134.119,531.98,-999,-999
1592,OKYH12,1730,OKYH12,35.0967,134.322,719.57,-999,-999
1593,OKYH13,1731,OKYH13,34.7251,134.277,598.28,-999,-999
1594,OKYH14,1732,OKYH14,34.9331,133.623,709.86,-999,-999
1595,SMN001,1733,SMN001,35.5341,133.164,331,-999,-999
1596,SMN002,1734,SMN002,35.4683,133.071,138.76,-999,-999
1597,SMN003,1735,SMN003,35.1763,133.096,343.97,-999,-999
1598,SMN004,1736,SMN004,35.285,132.903,281.4,-999,-999
1599,SMN005,1737,SMN005,35.358,132.747,182.3,-999,-999
1600,SMN006,1738,SMN006,35.1911,132.5,627.09,-999,-999
1601,SMN007,1739,SMN007,35.0775,132.594,383.13,-999,-999
1602,SMN008,1740,SMN008,34.8491,132.533,404.51,-999,-999
1603,SMN009,1741,SMN009,35.008,132.225,291.36,-999,-999
1604,SMN010,1742,SMN010,34.8838,132.081,639.38,-999,-999
1605,SMN015,1743,SMN015,35.3613,133.173,616.55,-999,-999
1606,SMN016,1744,SMN016,35.1925,132.817,254.46,-999,-999
1607,SMN017,1745,SMN017,36.0902,132.987,262.19,-999,-999
1608,SMN018,1746,SMN018,36.1894,133.236,271.29,-999,-999
1609,SMNH01,1747,SMNH01,35.2931,133.263,446.34,-999,-999
1610,SMNH02,1748,SMNH02,35.2203,133.088,502.66,-999,-999
